[
  {
    "lng": 34.8370833334332,
    "lat": 31.857700045996,
    "OBJECTID_1": 1,
    "OBJECTID": 1,
    "SETL_CODE": 862,
    "name": "גני יוחנן",
    "MGLSDE_L_1": 536,
    "MGLSDE_L_2": 31,
    "MGLSDE_L_3": "מושבים (כפרים שיתופיים) (ב)",
    "MGLSDE_L_4": "GANNE YOHANAN"
  },
  {
    "lng": 34.9137746940875,
    "lat": 31.9632730962419,
    "OBJECTID_1": 2,
    "OBJECTID": 2,
    "SETL_CODE": 863,
    "name": "גינתון",
    "MGLSDE_L_1": 582,
    "MGLSDE_L_2": 31,
    "MGLSDE_L_3": "מושבים (כפרים שיתופיים) (ב)",
    "MGLSDE_L_4": "GINNATON"
  },
  {
    "lng": 34.9250934226688,
    "lat": 31.8292697254558,
    "OBJECTID_1": 3,
    "OBJECTID": 3,
    "SETL_CODE": 864,
    "name": "בקוע",
    "MGLSDE_L_1": 497,
    "MGLSDE_L_2": 31,
    "MGLSDE_L_3": "מושבים (כפרים שיתופיים) (ב)",
    "MGLSDE_L_4": "BEQOA"
  },
  {
    "lng": 34.6076231257121,
    "lat": 31.3963750074035,
    "OBJECTID_1": 4,
    "OBJECTID": 4,
    "SETL_CODE": 865,
    "name": "שיבולים",
    "MGLSDE_L_1": 297,
    "MGLSDE_L_2": 31,
    "MGLSDE_L_3": "מושבים (כפרים שיתופיים) (ב)",
    "MGLSDE_L_4": "SHIBBOLIM"
  },
  {
    "lng": 35.063076550323,
    "lat": 29.8949947693795,
    "OBJECTID_1": 5,
    "OBJECTID": 5,
    "SETL_CODE": 866,
    "name": "יטבתה",
    "MGLSDE_L_1": 576,
    "MGLSDE_L_2": 33,
    "MGLSDE_L_3": "קיבוצים",
    "MGLSDE_L_4": "YOTVATA"
  },
  {
    "lng": 35.0037176009896,
    "lat": 32.5104424379227,
    "OBJECTID_1": 6,
    "OBJECTID": 6,
    "SETL_CODE": 868,
    "name": "אלוני יצחק",
    "MGLSDE_L_1": 223,
    "MGLSDE_L_2": 34,
    "MGLSDE_L_3": "ישובים מוסדיים יהודים",
    "MGLSDE_L_4": "ALLONE YIZHAQ"
  },
  {
    "lng": 34.9215927328229,
    "lat": 32.0981319797829,
    "OBJECTID_1": 7,
    "OBJECTID": 7,
    "SETL_CODE": 870,
    "name": "גבעת השלושה",
    "MGLSDE_L_1": 439,
    "MGLSDE_L_2": 33,
    "MGLSDE_L_3": "קיבוצים",
    "MGLSDE_L_4": "GIV'AT HASHELOSHA"
  },
  {
    "lng": 34.9390647469673,
    "lat": 32.0828620570197,
    "OBJECTID_1": 8,
    "OBJECTID": 8,
    "SETL_CODE": 871,
    "name": "עינת",
    "MGLSDE_L_1": 611,
    "MGLSDE_L_2": 33,
    "MGLSDE_L_3": "קיבוצים",
    "MGLSDE_L_4": "ENAT"
  },
  {
    "lng": 34.9016282377641,
    "lat": 32.3923142565263,
    "OBJECTID_1": 9,
    "OBJECTID": 9,
    "SETL_CODE": 872,
    "name": "גאולי תימן",
    "MGLSDE_L_1": 311,
    "MGLSDE_L_2": 31,
    "MGLSDE_L_3": "מושבים (כפרים שיתופיים) (ב)",
    "MGLSDE_L_4": "GE'ULE TEMAN"
  },
  {
    "lng": 34.7676446527205,
    "lat": 31.5644385631114,
    "OBJECTID_1": 10,
    "OBJECTID": 10,
    "SETL_CODE": 873,
    "name": "שלווה",
    "MGLSDE_L_1": 449,
    "MGLSDE_L_2": 31,
    "MGLSDE_L_3": "מושבים (כפרים שיתופיים) (ב)",
    "MGLSDE_L_4": "SHALWA"
  },
  {
    "lng": 34.9412815795699,
    "lat": 32.2579548704324,
    "OBJECTID_1": 11,
    "OBJECTID": 11,
    "SETL_CODE": 875,
    "name": "כפר עבודה",
    "MGLSDE_L_1": 400,
    "MGLSDE_L_2": 34,
    "MGLSDE_L_3": "ישובים מוסדיים יהודים",
    "MGLSDE_L_4": "KEFAR AVODA"
  },
  {
    "lng": 34.8713371859455,
    "lat": 32.3764585328346,
    "OBJECTID_1": 12,
    "OBJECTID": 12,
    "SETL_CODE": 877,
    "name": "בית חירות",
    "MGLSDE_L_1": 616,
    "MGLSDE_L_2": 31,
    "MGLSDE_L_3": "מושבים (כפרים שיתופיים) (ב)",
    "MGLSDE_L_4": "BET HERUT"
  },
  {
    "lng": 34.9359462816889,
    "lat": 32.2737306973477,
    "OBJECTID_1": 13,
    "OBJECTID": 13,
    "SETL_CODE": 880,
    "name": "עין שריד",
    "MGLSDE_L_1": 1150,
    "MGLSDE_L_2": 35,
    "MGLSDE_L_3": "ישובים כפריים יהודים אחרים",
    "MGLSDE_L_4": "EN SARID"
  },
  {
    "lng": 34.8415017937438,
    "lat": 32.0348897807862,
    "OBJECTID_1": 14,
    "OBJECTID": 14,
    "SETL_CODE": 883,
    "name": "רמת פנקס",
    "MGLSDE_L_1": 531,
    "MGLSDE_L_2": 35,
    "MGLSDE_L_3": "ישובים כפריים יהודים אחרים",
    "MGLSDE_L_4": "RAMAT PINKAS"
  },
  {
    "lng": 34.7937047242101,
    "lat": 30.8714420447307,
    "OBJECTID_1": 15,
    "OBJECTID": 15,
    "SETL_CODE": 885,
    "name": "שדה בוקר",
    "MGLSDE_L_1": 471,
    "MGLSDE_L_2": 33,
    "MGLSDE_L_3": "קיבוצים",
    "MGLSDE_L_4": "SEDE BOQER"
  },
  {
    "lng": 35.0956872520313,
    "lat": 31.7783201094464,
    "OBJECTID_1": 16,
    "OBJECTID": 16,
    "SETL_CODE": 886,
    "name": "איתנים",
    "MGLSDE_L_1": 203,
    "MGLSDE_L_2": 34,
    "MGLSDE_L_3": "ישובים מוסדיים יהודים",
    "MGLSDE_L_4": "ETANIM"
  },
  {
    "lng": 34.7920805113639,
    "lat": 31.7495732541744,
    "OBJECTID_1": 17,
    "OBJECTID": 17,
    "SETL_CODE": 888,
    "name": "כפר הרי\"ף",
    "MGLSDE_L_1": 531,
    "MGLSDE_L_2": 31,
    "MGLSDE_L_3": "מושבים (כפרים שיתופיים) (ב)",
    "MGLSDE_L_4": "KEFAR HARIF"
  },
  {
    "lng": 35.0872601997513,
    "lat": 32.7526167806331,
    "OBJECTID_1": 18,
    "OBJECTID": 18,
    "SETL_CODE": 889,
    "name": "כפר חסידים ב'",
    "MGLSDE_L_1": 188,
    "MGLSDE_L_2": 35,
    "MGLSDE_L_3": "ישובים כפריים יהודים אחרים",
    "MGLSDE_L_4": "KEFAR HASIDIM BET"
  },
  {
    "lng": 35.0991898579627,
    "lat": 32.7427514242739,
    "OBJECTID_1": 19,
    "OBJECTID": 19,
    "SETL_CODE": 890,
    "name": "כפר הנוער הדתי",
    "MGLSDE_L_1": 566,
    "MGLSDE_L_2": 34,
    "MGLSDE_L_3": "ישובים מוסדיים יהודים",
    "MGLSDE_L_4": "KEFAR HANO'AR HADATI"
  },
  {
    "lng": 35.1823834809677,
    "lat": 33.0494097371008,
    "OBJECTID_1": 20,
    "OBJECTID": 20,
    "SETL_CODE": 892,
    "name": "עבדון",
    "MGLSDE_L_1": 465,
    "MGLSDE_L_2": 31,
    "MGLSDE_L_3": "מושבים (כפרים שיתופיים) (ב)",
    "MGLSDE_L_4": "AVDON"
  },
  {
    "lng": 35.3985850360693,
    "lat": 32.6861978348932,
    "OBJECTID_1": 21,
    "OBJECTID": 21,
    "SETL_CODE": 913,
    "name": "שבלי - אום אל-גנם",
    "MGLSDE_L_1": 4400,
    "MGLSDE_L_2": 28,
    "MGLSDE_L_3": "2000-9999 תושבים,ישובים לא יהודים",
    "MGLSDE_L_4": "SHIBLI-UMM AL-GHANAM"
  },
  {
    "lng": 34.4022432556255,
    "lat": 31.2475865136921,
    "OBJECTID_1": 22,
    "OBJECTID": 22,
    "SETL_CODE": 916,
    "name": "ישע",
    "MGLSDE_L_1": 148,
    "MGLSDE_L_2": 31,
    "MGLSDE_L_3": "מושבים (כפרים שיתופיים) (ב)",
    "MGLSDE_L_4": "YESHA"
  },
  {
    "lng": 35.2527247201265,
    "lat": 32.865893117255,
    "OBJECTID_1": 23,
    "OBJECTID": 23,
    "SETL_CODE": 917,
    "name": "שגב",
    "MGLSDE_L_1": 854,
    "MGLSDE_L_2": 37,
    "MGLSDE_L_3": "ישובים קהילתיים",
    "MGLSDE_L_4": "SEGEV"
  },
  {
    "lng": 34.9477178638369,
    "lat": 31.6704086645067,
    "OBJECTID_1": 24,
    "OBJECTID": 24,
    "SETL_CODE": 919,
    "name": "גבעת ישעיהו",
    "MGLSDE_L_1": 329,
    "MGLSDE_L_2": 31,
    "MGLSDE_L_3": "מושבים (כפרים שיתופיים) (ב)",
    "MGLSDE_L_4": "GIV'AT YESHA'YAHU"
  },
  {
    "lng": 35.0167562474858,
    "lat": 32.4508538401193,
    "OBJECTID_1": 25,
    "OBJECTID": 25,
    "SETL_CODE": 921,
    "name": "שער מנשה",
    "MGLSDE_L_1": 1200,
    "MGLSDE_L_2": 34,
    "MGLSDE_L_3": "ישובים מוסדיים יהודים",
    "MGLSDE_L_4": "SHA'AR MENASHE"
  },
  {
    "lng": 35.1017087314518,
    "lat": 32.7519866128193,
    "OBJECTID_1": 26,
    "OBJECTID": 26,
    "SETL_CODE": 922,
    "name": "רכסים",
    "MGLSDE_L_1": 7750,
    "MGLSDE_L_2": 18,
    "MGLSDE_L_3": "2000-9999 תושבים,ישובים יהודים",
    "MGLSDE_L_4": "REKHASIM"
  },
  {
    "lng": 35.1660054452832,
    "lat": 32.5573936871891,
    "OBJECTID_1": 27,
    "OBJECTID": 27,
    "SETL_CODE": 934,
    "name": "ביאדה",
    "MGLSDE_L_1": 274,
    "MGLSDE_L_2": 45,
    "MGLSDE_L_3": "ישובים כפריים אחרים לא יהודים",
    "MGLSDE_L_4": "BAYADA"
  },
  {
    "lng": 35.1677075318226,
    "lat": 32.7673159186053,
    "OBJECTID_1": 28,
    "OBJECTID": 28,
    "SETL_CODE": 942,
    "name": "סואעד (חמרייה)",
    "MGLSDE_L_1": 0,
    "MGLSDE_L_2": 46,
    "MGLSDE_L_3": "שבטי בדווים",
    "MGLSDE_L_4": "SAWA'ID(HAMRIYYE)"
  },
  {
    "lng": 35.1474160360823,
    "lat": 32.7407321420667,
    "OBJECTID_1": 29,
    "OBJECTID": 29,
    "SETL_CODE": 944,
    "name": "בסמת טבעון",
    "MGLSDE_L_1": 5750,
    "MGLSDE_L_2": 28,
    "MGLSDE_L_3": "2000-9999 תושבים,ישובים לא יהודים",
    "MGLSDE_L_4": "BASMAT TAB'UN"
  },
  {
    "lng": 35.2231358786562,
    "lat": 32.7253034905377,
    "OBJECTID_1": 30,
    "OBJECTID": 30,
    "SETL_CODE": 975,
    "name": "זרזיר",
    "MGLSDE_L_1": 5780,
    "MGLSDE_L_2": 28,
    "MGLSDE_L_3": "2000-9999 תושבים,ישובים לא יהודים",
    "MGLSDE_L_4": "ZARZIR"
  },
  {
    "lng": 35.1913295266662,
    "lat": 32.7472032730826,
    "OBJECTID_1": 31,
    "OBJECTID": 31,
    "SETL_CODE": 978,
    "name": "כעביה-טבאש-חג'אג'רה",
    "MGLSDE_L_1": 3540,
    "MGLSDE_L_2": 28,
    "MGLSDE_L_3": "2000-9999 תושבים,ישובים לא יהודים",
    "MGLSDE_L_4": "KA'ABIYYE-TABBASH-HAJAJRE"
  },
  {
    "lng": 35.4898718916306,
    "lat": 32.8298407087253,
    "OBJECTID_1": 32,
    "OBJECTID": 32,
    "SETL_CODE": 993,
    "name": "חמאם",
    "MGLSDE_L_1": 1190,
    "MGLSDE_L_2": 45,
    "MGLSDE_L_3": "ישובים כפריים אחרים לא יהודים",
    "MGLSDE_L_4": "HAMAM"
  },
  {
    "lng": 35.1927629965794,
    "lat": 32.7055098147342,
    "OBJECTID_1": 33,
    "OBJECTID": 33,
    "SETL_CODE": 994,
    "name": "מנשית זבדה",
    "MGLSDE_L_1": 887,
    "MGLSDE_L_2": 45,
    "MGLSDE_L_3": "ישובים כפריים אחרים לא יהודים",
    "MGLSDE_L_4": "MANSHIYYET ZABDA"
  },
  {
    "lng": 35.3029672402387,
    "lat": 32.7793573544762,
    "OBJECTID_1": 34,
    "OBJECTID": 34,
    "SETL_CODE": 997,
    "name": "רומת הייב",
    "MGLSDE_L_1": 1500,
    "MGLSDE_L_2": 45,
    "MGLSDE_L_3": "ישובים כפריים אחרים לא יהודים",
    "MGLSDE_L_4": "RUMAT HEIB"
  },
  {
    "lng": 35.222893101445,
    "lat": 32.7834478542778,
    "OBJECTID_1": 35,
    "OBJECTID": 35,
    "SETL_CODE": 998,
    "name": "ביר אל-מכסור",
    "MGLSDE_L_1": 6440,
    "MGLSDE_L_2": 28,
    "MGLSDE_L_3": "2000-9999 תושבים,ישובים לא יהודים",
    "MGLSDE_L_4": "BIR EL-MAKSUR"
  },
  {
    "lng": 35.150529475619,
    "lat": 31.8001699246383,
    "OBJECTID_1": 36,
    "OBJECTID": 36,
    "SETL_CODE": 1015,
    "name": "מבשרת ציון",
    "MGLSDE_L_1": 20800,
    "MGLSDE_L_2": 16,
    "MGLSDE_L_3": "20000-49999 תושבים,ישובים יהודים",
    "MGLSDE_L_4": "MEVASSERET ZIYYON"
  },
  {
    "lng": 34.9200534256654,
    "lat": 32.5094867006543,
    "OBJECTID_1": 37,
    "OBJECTID": 37,
    "SETL_CODE": 1020,
    "name": "אור עקיבא",
    "MGLSDE_L_1": 15700,
    "MGLSDE_L_2": 17,
    "MGLSDE_L_3": "10000-19999 תושבים,ישובים יהודים",
    "MGLSDE_L_4": "OR AQIVA"
  },
  {
    "lng": 34.8648766054018,
    "lat": 32.2273686952822,
    "OBJECTID_1": 38,
    "OBJECTID": 38,
    "SETL_CODE": 1024,
    "name": "חרוצים",
    "MGLSDE_L_1": 694,
    "MGLSDE_L_2": 35,
    "MGLSDE_L_3": "ישובים כפריים יהודים אחרים",
    "MGLSDE_L_4": "HARUZIM"
  },
  {
    "lng": 34.5977458834956,
    "lat": 31.5259030322262,
    "OBJECTID_1": 39,
    "OBJECTID": 39,
    "SETL_CODE": 1031,
    "name": "שדרות",
    "MGLSDE_L_1": 19400,
    "MGLSDE_L_2": 17,
    "MGLSDE_L_3": "10000-19999 תושבים,ישובים יהודים",
    "MGLSDE_L_4": "SEDEROT"
  },
  {
    "lng": 34.7463103184028,
    "lat": 31.7325169829981,
    "OBJECTID_1": 40,
    "OBJECTID": 40,
    "SETL_CODE": 1034,
    "name": "קריית מלאכי",
    "MGLSDE_L_1": 19100,
    "MGLSDE_L_2": 17,
    "MGLSDE_L_3": "10000-19999 תושבים,ישובים יהודים",
    "MGLSDE_L_4": "QIRYAT MAL'AKHI"
  },
  {
    "lng": 34.9646784101637,
    "lat": 32.2675005753991,
    "OBJECTID_1": 41,
    "OBJECTID": 41,
    "SETL_CODE": 1044,
    "name": "יעף",
    "MGLSDE_L_1": 136,
    "MGLSDE_L_2": 35,
    "MGLSDE_L_3": "ישובים כפריים יהודים אחרים",
    "MGLSDE_L_4": "YE'AF"
  },
  {
    "lng": 35.3141602591365,
    "lat": 33.0856943895518,
    "OBJECTID_1": 42,
    "OBJECTID": 42,
    "SETL_CODE": 1045,
    "name": "שתולה",
    "MGLSDE_L_1": 219,
    "MGLSDE_L_2": 31,
    "MGLSDE_L_3": "מושבים (כפרים שיתופיים) (ב)",
    "MGLSDE_L_4": "SHETULA"
  },
  {
    "lng": 34.4320395710553,
    "lat": 31.2369780098232,
    "OBJECTID_1": 43,
    "OBJECTID": 43,
    "SETL_CODE": 1046,
    "name": "אוהד",
    "MGLSDE_L_1": 199,
    "MGLSDE_L_2": 31,
    "MGLSDE_L_3": "מושבים (כפרים שיתופיים) (ב)",
    "MGLSDE_L_4": "OHAD"
  },
  {
    "lng": 35.3951494076624,
    "lat": 32.9059742975757,
    "OBJECTID_1": 44,
    "OBJECTID": 44,
    "SETL_CODE": 1047,
    "name": "חזון",
    "MGLSDE_L_1": 350,
    "MGLSDE_L_2": 31,
    "MGLSDE_L_3": "מושבים (כפרים שיתופיים) (ב)",
    "MGLSDE_L_4": "HAZON"
  },
  {
    "lng": 34.8349613302926,
    "lat": 32.0469715591844,
    "OBJECTID_1": 45,
    "OBJECTID": 45,
    "SETL_CODE": 1049,
    "name": "רמת אפעל",
    "MGLSDE_L_1": 2780,
    "MGLSDE_L_2": 18,
    "MGLSDE_L_3": "2000-9999 תושבים,ישובים יהודים",
    "MGLSDE_L_4": "RAMAT EF'AL"
  },
  {
    "lng": 34.9171890055805,
    "lat": 31.889182753302,
    "OBJECTID_1": 46,
    "OBJECTID": 46,
    "SETL_CODE": 1050,
    "name": "בית חשמונאי",
    "MGLSDE_L_1": 838,
    "MGLSDE_L_2": 35,
    "MGLSDE_L_3": "ישובים כפריים יהודים אחרים",
    "MGLSDE_L_4": "BET HASHMONAY"
  },
  {
    "lng": 34.4293480065389,
    "lat": 31.2282932992525,
    "OBJECTID_1": 47,
    "OBJECTID": 47,
    "SETL_CODE": 1051,
    "name": "תלמי אליהו",
    "MGLSDE_L_1": 200,
    "MGLSDE_L_2": 31,
    "MGLSDE_L_3": "מושבים (כפרים שיתופיים) (ב)",
    "MGLSDE_L_4": "TALME ELIYYAHU"
  },
  {
    "lng": 35.0613300114599,
    "lat": 29.9695322648025,
    "OBJECTID_1": 48,
    "OBJECTID": 48,
    "SETL_CODE": 1052,
    "name": "קטורה",
    "MGLSDE_L_1": 393,
    "MGLSDE_L_2": 33,
    "MGLSDE_L_3": "קיבוצים",
    "MGLSDE_L_4": "QETURA"
  },
  {
    "lng": 34.8601763883537,
    "lat": 31.248049262195,
    "OBJECTID_1": 49,
    "OBJECTID": 49,
    "SETL_CODE": 1054,
    "name": "תל שבע",
    "MGLSDE_L_1": 11200,
    "MGLSDE_L_2": 27,
    "MGLSDE_L_3": "10000-19999 תושבים,ישובים לא יהודים",
    "MGLSDE_L_4": "TEL SHEVA"
  },
  {
    "lng": 35.3643690939098,
    "lat": 31.152499254303,
    "OBJECTID_1": 50,
    "OBJECTID": 50,
    "SETL_CODE": 1057,
    "name": "נווה זוהר",
    "MGLSDE_L_1": 88,
    "MGLSDE_L_2": 35,
    "MGLSDE_L_3": "ישובים כפריים יהודים אחרים",
    "MGLSDE_L_4": "NEWE ZOHAR"
  },
  {
    "lng": 34.4195114459896,
    "lat": 31.2300521601144,
    "OBJECTID_1": 51,
    "OBJECTID": 51,
    "SETL_CODE": 1058,
    "name": "שדה ניצן",
    "MGLSDE_L_1": 281,
    "MGLSDE_L_2": 31,
    "MGLSDE_L_3": "מושבים (כפרים שיתופיים) (ב)",
    "MGLSDE_L_4": "SEDE NIZZAN"
  },
  {
    "lng": 35.08004481141,
    "lat": 31.2447193170557,
    "OBJECTID_1": 52,
    "OBJECTID": 52,
    "SETL_CODE": 1059,
    "name": "כסיפה",
    "MGLSDE_L_1": 7940,
    "MGLSDE_L_2": 28,
    "MGLSDE_L_3": "2000-9999 תושבים,ישובים לא יהודים",
    "MGLSDE_L_4": "KUSEIFE"
  },
  {
    "lng": 34.8647645011837,
    "lat": 31.3238443713039,
    "OBJECTID_1": 53,
    "OBJECTID": 53,
    "SETL_CODE": 1060,
    "name": "לקיה",
    "MGLSDE_L_1": 6090,
    "MGLSDE_L_2": 28,
    "MGLSDE_L_3": "2000-9999 תושבים,ישובים לא יהודים",
    "MGLSDE_L_4": "LAQYE"
  },
  {
    "lng": 35.3227270063546,
    "lat": 32.7145037190575,
    "OBJECTID_1": 54,
    "OBJECTID": 54,
    "SETL_CODE": 1061,
    "name": "נצרת עילית",
    "MGLSDE_L_1": 44290,
    "MGLSDE_L_2": 16,
    "MGLSDE_L_3": "20000-49999 תושבים,ישובים יהודים",
    "MGLSDE_L_4": "NAZERAT ILLIT"
  },
  {
    "lng": 34.8739947623231,
    "lat": 32.0252752931594,
    "OBJECTID_1": 55,
    "OBJECTID": 55,
    "SETL_CODE": 1062,
    "name": "נווה אפרים",
    "MGLSDE_L_1": 22000,
    "MGLSDE_L_2": 16,
    "MGLSDE_L_3": "20000-49999 תושבים,ישובים יהודים",
    "MGLSDE_L_4": "YEHUD"
  },
  {
    "lng": 35.2821241834425,
    "lat": 33.0178315832258,
    "OBJECTID_1": 56,
    "OBJECTID": 56,
    "SETL_CODE": 1063,
    "name": "מעלות-תרשיחא",
    "MGLSDE_L_1": 20650,
    "MGLSDE_L_2": 16,
    "MGLSDE_L_3": "20000-49999 תושבים,ישובים יהודים",
    "MGLSDE_L_4": "MA'ALOT-TARSHIHA"
  },
  {
    "lng": 35.4494195831306,
    "lat": 32.9381185987987,
    "OBJECTID_1": 57,
    "OBJECTID": 57,
    "SETL_CODE": 1064,
    "name": "אמירים",
    "MGLSDE_L_1": 458,
    "MGLSDE_L_2": 31,
    "MGLSDE_L_3": "מושבים (כפרים שיתופיים) (ב)",
    "MGLSDE_L_4": "AMIRIM"
  },
  {
    "lng": 34.7602245134038,
    "lat": 31.7891233254057,
    "OBJECTID_1": 58,
    "OBJECTID": 58,
    "SETL_CODE": 1066,
    "name": "בני עי\"ש",
    "MGLSDE_L_1": 7570,
    "MGLSDE_L_2": 18,
    "MGLSDE_L_3": "2000-9999 תושבים,ישובים יהודים",
    "MGLSDE_L_4": "BENE AYISH"
  },
  {
    "lng": 35.4094908399496,
    "lat": 33.0538535167836,
    "OBJECTID_1": 59,
    "OBJECTID": 59,
    "SETL_CODE": 1067,
    "name": "דוב\"ב",
    "MGLSDE_L_1": 411,
    "MGLSDE_L_2": 31,
    "MGLSDE_L_3": "מושבים (כפרים שיתופיים) (ב)",
    "MGLSDE_L_4": "DOVEV"
  },
  {
    "lng": 35.2199927434519,
    "lat": 33.0857724489591,
    "OBJECTID_1": 60,
    "OBJECTID": 60,
    "SETL_CODE": 1068,
    "name": "אדמית",
    "MGLSDE_L_1": 139,
    "MGLSDE_L_2": 33,
    "MGLSDE_L_3": "קיבוצים",
    "MGLSDE_L_4": "ADAMIT"
  },
  {
    "lng": 35.2595499374703,
    "lat": 32.5279290873165,
    "OBJECTID_1": 61,
    "OBJECTID": 61,
    "SETL_CODE": 1069,
    "name": "רם-און",
    "MGLSDE_L_1": 526,
    "MGLSDE_L_2": 31,
    "MGLSDE_L_3": "מושבים (כפרים שיתופיים) (ב)",
    "MGLSDE_L_4": "RAM-ON"
  },
  {
    "lng": 35.0155712113222,
    "lat": 31.6814500376867,
    "OBJECTID_1": 62,
    "OBJECTID": 62,
    "SETL_CODE": 1070,
    "name": "אביעזר",
    "MGLSDE_L_1": 492,
    "MGLSDE_L_2": 31,
    "MGLSDE_L_3": "מושבים (כפרים שיתופיים) (ב)",
    "MGLSDE_L_4": "AVI'EZER"
  },
  {
    "lng": 35.0057560937076,
    "lat": 31.6730758855532,
    "OBJECTID_1": 63,
    "OBJECTID": 63,
    "SETL_CODE": 1071,
    "name": "נווה מיכאל",
    "MGLSDE_L_1": 419,
    "MGLSDE_L_2": 31,
    "MGLSDE_L_3": "מושבים (כפרים שיתופיים) (ב)",
    "MGLSDE_L_4": "NEWE MIKHA'EL"
  },
  {
    "lng": 34.7008926892783,
    "lat": 31.8041138279133,
    "OBJECTID_1": 64,
    "OBJECTID": 64,
    "SETL_CODE": 1072,
    "name": "גן הדרום",
    "MGLSDE_L_1": 361,
    "MGLSDE_L_2": 31,
    "MGLSDE_L_3": "מושבים (כפרים שיתופיים) (ב)",
    "MGLSDE_L_4": "GAN HADAROM"
  },
  {
    "lng": 34.926600786158,
    "lat": 32.2013540959889,
    "OBJECTID_1": 65,
    "OBJECTID": 65,
    "SETL_CODE": 1076,
    "name": "בית ברל",
    "MGLSDE_L_1": 256,
    "MGLSDE_L_2": 34,
    "MGLSDE_L_3": "ישובים מוסדיים יהודים",
    "MGLSDE_L_4": "BET BERL"
  },
  {
    "lng": 34.9431936010793,
    "lat": 31.6604207200454,
    "OBJECTID_1": 66,
    "OBJECTID": 66,
    "SETL_CODE": 1079,
    "name": "צפרירים",
    "MGLSDE_L_1": 283,
    "MGLSDE_L_2": 31,
    "MGLSDE_L_3": "מושבים (כפרים שיתופיים) (ב)",
    "MGLSDE_L_4": "ZAFRIRIM"
  },
  {
    "lng": 34.6540589963388,
    "lat": 31.4492116410543,
    "OBJECTID_1": 67,
    "OBJECTID": 67,
    "SETL_CODE": 1080,
    "name": "מבועים",
    "MGLSDE_L_1": 964,
    "MGLSDE_L_2": 35,
    "MGLSDE_L_3": "ישובים כפריים יהודים אחרים",
    "MGLSDE_L_4": "MABBU'IM"
  },
  {
    "lng": 35.2937211645333,
    "lat": 33.0744634911106,
    "OBJECTID_1": 68,
    "OBJECTID": 68,
    "SETL_CODE": 1081,
    "name": "אבן מנחם",
    "MGLSDE_L_1": 309,
    "MGLSDE_L_2": 31,
    "MGLSDE_L_3": "מושבים (כפרים שיתופיים) (ב)",
    "MGLSDE_L_4": "EVEN MENAHEM"
  },
  {
    "lng": 34.5986877295265,
    "lat": 31.3967490138292,
    "OBJECTID_1": 69,
    "OBJECTID": 69,
    "SETL_CODE": 1082,
    "name": "מעגלים",
    "MGLSDE_L_1": 1370,
    "MGLSDE_L_2": 35,
    "MGLSDE_L_3": "ישובים כפריים יהודים אחרים",
    "MGLSDE_L_4": "MA'GALIM"
  },
  {
    "lng": 34.5407015233831,
    "lat": 31.4337279358525,
    "OBJECTID_1": 70,
    "OBJECTID": 70,
    "SETL_CODE": 1083,
    "name": "תושייה",
    "MGLSDE_L_1": 719,
    "MGLSDE_L_2": 35,
    "MGLSDE_L_3": "ישובים כפריים יהודים אחרים",
    "MGLSDE_L_4": "TUSHIYYA"
  },
  {
    "lng": 34.9277705533558,
    "lat": 31.9597747040147,
    "OBJECTID_1": 71,
    "OBJECTID": 71,
    "SETL_CODE": 1084,
    "name": "בן שמן (כפר נוער)",
    "MGLSDE_L_1": 638,
    "MGLSDE_L_2": 34,
    "MGLSDE_L_3": "ישובים מוסדיים יהודים",
    "MGLSDE_L_4": "BEN SHEMEN(K.NO'AR)"
  },
  {
    "lng": 34.2844932172943,
    "lat": 31.2278180705192,
    "OBJECTID_1": 72,
    "OBJECTID": 72,
    "SETL_CODE": 1085,
    "name": "כרם שלום",
    "MGLSDE_L_1": 0,
    "MGLSDE_L_2": 33,
    "MGLSDE_L_3": "קיבוצים",
    "MGLSDE_L_4": "KEREM SHALOM"
  },
  {
    "lng": 34.7216312951809,
    "lat": 31.819440600109,
    "OBJECTID_1": 73,
    "OBJECTID": 73,
    "SETL_CODE": 1094,
    "name": "כרם יבנה (ישיבה)",
    "MGLSDE_L_1": 354,
    "MGLSDE_L_2": 34,
    "MGLSDE_L_3": "ישובים מוסדיים יהודים",
    "MGLSDE_L_4": "KEREM YAVNE(YESHIVA)"
  },
  {
    "lng": 35.3718112206433,
    "lat": 32.6894856671167,
    "OBJECTID_1": 74,
    "OBJECTID": 74,
    "SETL_CODE": 489,
    "name": "דבורייה",
    "MGLSDE_L_1": 7690,
    "MGLSDE_L_2": 28,
    "MGLSDE_L_3": "2000-9999 תושבים,ישובים לא יהודים",
    "MGLSDE_L_4": "DABURIYYA"
  },
  {
    "lng": 35.2659860807972,
    "lat": 32.9374797537819,
    "OBJECTID_1": 75,
    "OBJECTID": 75,
    "SETL_CODE": 490,
    "name": "דיר אל-אסד",
    "MGLSDE_L_1": 8290,
    "MGLSDE_L_2": 28,
    "MGLSDE_L_3": "2000-9999 תושבים,ישובים לא יהודים",
    "MGLSDE_L_4": "DEIR AL-ASAD"
  },
  {
    "lng": 35.3678610709024,
    "lat": 32.8628133364707,
    "OBJECTID_1": 76,
    "OBJECTID": 76,
    "SETL_CODE": 492,
    "name": "דייר חנא",
    "MGLSDE_L_1": 7810,
    "MGLSDE_L_2": 28,
    "MGLSDE_L_3": "2000-9999 תושבים,ישובים לא יהודים",
    "MGLSDE_L_4": "DEIR HANNA"
  },
  {
    "lng": 34.9472591177483,
    "lat": 31.7762795855921,
    "OBJECTID_1": 77,
    "OBJECTID": 77,
    "SETL_CODE": 493,
    "name": "דייר ראפאת",
    "MGLSDE_L_1": 50,
    "MGLSDE_L_2": 44,
    "MGLSDE_L_3": "ישובים מוסדיים לא יהודים",
    "MGLSDE_L_4": "DEIR RAFAT"
  },
  {
    "lng": 35.0528546112006,
    "lat": 32.6933310827704,
    "OBJECTID_1": 78,
    "OBJECTID": 78,
    "SETL_CODE": 494,
    "name": "עיר כרמל",
    "MGLSDE_L_1": 13300,
    "MGLSDE_L_2": 27,
    "MGLSDE_L_3": "10000-19999 תושבים,ישובים לא יהודים",
    "MGLSDE_L_4": "IR KARMEL"
  },
  {
    "lng": 35.3446851904279,
    "lat": 33.0165669233255,
    "OBJECTID_1": 79,
    "OBJECTID": 79,
    "SETL_CODE": 496,
    "name": "חורפיש",
    "MGLSDE_L_1": 4880,
    "MGLSDE_L_2": 28,
    "MGLSDE_L_3": "2000-9999 תושבים,ישובים לא יהודים",
    "MGLSDE_L_4": "HURFEISH"
  },
  {
    "lng": 35.4448401972594,
    "lat": 32.6037816504705,
    "OBJECTID_1": 80,
    "OBJECTID": 80,
    "SETL_CODE": 497,
    "name": "טייבה (בעמק)",
    "MGLSDE_L_1": 1400,
    "MGLSDE_L_2": 45,
    "MGLSDE_L_3": "ישובים כפריים אחרים לא יהודים",
    "MGLSDE_L_4": "TAYIBE(BAEMEQ)"
  },
  {
    "lng": 35.3751176211404,
    "lat": 32.7772441751451,
    "OBJECTID_1": 81,
    "OBJECTID": 81,
    "SETL_CODE": 498,
    "name": "טורעאן",
    "MGLSDE_L_1": 10300,
    "MGLSDE_L_2": 27,
    "MGLSDE_L_3": "10000-19999 תושבים,ישובים לא יהודים",
    "MGLSDE_L_4": "TUR'AN"
  },
  {
    "lng": 35.2756894124789,
    "lat": 32.6841793556134,
    "OBJECTID_1": 82,
    "OBJECTID": 82,
    "SETL_CODE": 499,
    "name": "יפיע",
    "MGLSDE_L_1": 15400,
    "MGLSDE_L_2": 27,
    "MGLSDE_L_3": "10000-19999 תושבים,ישובים לא יהודים",
    "MGLSDE_L_4": "YAFI"
  },
  {
    "lng": 35.2021676893324,
    "lat": 32.9543978362127,
    "OBJECTID_1": 83,
    "OBJECTID": 83,
    "SETL_CODE": 502,
    "name": "ירכא",
    "MGLSDE_L_1": 11600,
    "MGLSDE_L_2": 27,
    "MGLSDE_L_3": "10000-19999 תושבים,ישובים לא יהודים",
    "MGLSDE_L_4": "YIRKA"
  },
  {
    "lng": 35.2072158104319,
    "lat": 32.8721902811792,
    "OBJECTID_1": 84,
    "OBJECTID": 84,
    "SETL_CODE": 504,
    "name": "כאבול",
    "MGLSDE_L_1": 8710,
    "MGLSDE_L_2": 28,
    "MGLSDE_L_3": "2000-9999 תושבים,ישובים לא יהודים",
    "MGLSDE_L_4": "KABUL"
  },
  {
    "lng": 35.2483580671165,
    "lat": 32.8305839285158,
    "OBJECTID_1": 85,
    "OBJECTID": 85,
    "SETL_CODE": 505,
    "name": "כאוכב אבו אל-היג'א",
    "MGLSDE_L_1": 2580,
    "MGLSDE_L_2": 28,
    "MGLSDE_L_3": "2000-9999 תושבים,ישובים לא יהודים",
    "MGLSDE_L_4": "KAOKAB ABU AL-HIJA"
  },
  {
    "lng": 35.4399940405787,
    "lat": 32.7215359670496,
    "OBJECTID_1": 86,
    "OBJECTID": 86,
    "SETL_CODE": 508,
    "name": "כפר כמא",
    "MGLSDE_L_1": 2710,
    "MGLSDE_L_2": 28,
    "MGLSDE_L_3": "2000-9999 תושבים,ישובים לא יהודים",
    "MGLSDE_L_4": "KAFAR KAMA"
  },
  {
    "lng": 35.341721886388,
    "lat": 32.7473925946292,
    "OBJECTID_1": 87,
    "OBJECTID": 87,
    "SETL_CODE": 509,
    "name": "כפר כנא",
    "MGLSDE_L_1": 16100,
    "MGLSDE_L_2": 27,
    "MGLSDE_L_3": "10000-19999 תושבים,ישובים לא יהודים",
    "MGLSDE_L_4": "KAFAR KANNA"
  },
  {
    "lng": 35.2634966611836,
    "lat": 32.8084315403218,
    "OBJECTID_1": 88,
    "OBJECTID": 88,
    "SETL_CODE": 510,
    "name": "כפר מנדא",
    "MGLSDE_L_1": 13800,
    "MGLSDE_L_2": 27,
    "MGLSDE_L_3": "10000-19999 תושבים,ישובים לא יהודים",
    "MGLSDE_L_4": "KAFAR MANDA"
  },
  {
    "lng": 35.2618966215657,
    "lat": 32.7181678954939,
    "OBJECTID_1": 89,
    "OBJECTID": 89,
    "SETL_CODE": 511,
    "name": "עילוט",
    "MGLSDE_L_1": 6030,
    "MGLSDE_L_2": 28,
    "MGLSDE_L_3": "2000-9999 תושבים,ישובים לא יהודים",
    "MGLSDE_L_4": "ILUT"
  },
  {
    "lng": 35.4227736286348,
    "lat": 32.6455282700181,
    "OBJECTID_1": 90,
    "OBJECTID": 90,
    "SETL_CODE": 512,
    "name": "כפר מצר",
    "MGLSDE_L_1": 2080,
    "MGLSDE_L_2": 28,
    "MGLSDE_L_3": "2000-9999 תושבים,ישובים לא יהודים",
    "MGLSDE_L_4": "KAFAR MISR"
  },
  {
    "lng": 35.1136510750515,
    "lat": 31.7903354584138,
    "OBJECTID_1": 91,
    "OBJECTID": 91,
    "SETL_CODE": 514,
    "name": "עין ראפה",
    "MGLSDE_L_1": 688,
    "MGLSDE_L_2": 45,
    "MGLSDE_L_3": "ישובים כפריים אחרים לא יהודים",
    "MGLSDE_L_4": "EIN RAFA"
  },
  {
    "lng": 35.2547696095697,
    "lat": 32.9206610062916,
    "OBJECTID_1": 92,
    "OBJECTID": 92,
    "SETL_CODE": 516,
    "name": "שגור",
    "MGLSDE_L_1": 11400,
    "MGLSDE_L_2": 27,
    "MGLSDE_L_3": "10000-19999 תושבים,ישובים לא יהודים",
    "MGLSDE_L_4": "SHAGHOR"
  },
  {
    "lng": 35.0986009705819,
    "lat": 32.984377354652,
    "OBJECTID_1": 93,
    "OBJECTID": 93,
    "SETL_CODE": 517,
    "name": "מזרעה",
    "MGLSDE_L_1": 3230,
    "MGLSDE_L_2": 28,
    "MGLSDE_L_3": "2000-9999 תושבים,ישובים לא יהודים",
    "MGLSDE_L_4": "MAZRA'A"
  },
  {
    "lng": 35.2572363987287,
    "lat": 33.0270603054927,
    "OBJECTID_1": 94,
    "OBJECTID": 94,
    "SETL_CODE": 518,
    "name": "מעיליא",
    "MGLSDE_L_1": 2550,
    "MGLSDE_L_2": 28,
    "MGLSDE_L_3": "2000-9999 תושבים,ישובים לא יהודים",
    "MGLSDE_L_4": "MI'ELYA"
  },
  {
    "lng": 35.3219874917594,
    "lat": 32.7411552397988,
    "OBJECTID_1": 95,
    "OBJECTID": 95,
    "SETL_CODE": 520,
    "name": "משהד",
    "MGLSDE_L_1": 6390,
    "MGLSDE_L_2": 28,
    "MGLSDE_L_3": "2000-9999 תושבים,ישובים לא יהודים",
    "MGLSDE_L_4": "MESHHED"
  },
  {
    "lng": 35.3185555739738,
    "lat": 32.9348316882925,
    "OBJECTID_1": 96,
    "OBJECTID": 96,
    "SETL_CODE": 522,
    "name": "נחף",
    "MGLSDE_L_1": 9220,
    "MGLSDE_L_2": 28,
    "MGLSDE_L_3": "2000-9999 תושבים,ישובים לא יהודים",
    "MGLSDE_L_4": "NAHEF"
  },
  {
    "lng": 35.3490282054712,
    "lat": 32.6308413706018,
    "OBJECTID_1": 97,
    "OBJECTID": 97,
    "SETL_CODE": 523,
    "name": "ניין",
    "MGLSDE_L_1": 1500,
    "MGLSDE_L_2": 45,
    "MGLSDE_L_3": "ישובים כפריים אחרים לא יהודים",
    "MGLSDE_L_4": "NEIN"
  },
  {
    "lng": 35.3926587609917,
    "lat": 32.6108382102629,
    "OBJECTID_1": 98,
    "OBJECTID": 98,
    "SETL_CODE": 524,
    "name": "נאעורה",
    "MGLSDE_L_1": 1560,
    "MGLSDE_L_2": 45,
    "MGLSDE_L_3": "ישובים כפריים אחרים לא יהודים",
    "MGLSDE_L_4": "NA'URA"
  },
  {
    "lng": 35.3446654467348,
    "lat": 32.9412307037033,
    "OBJECTID_1": 99,
    "OBJECTID": 99,
    "SETL_CODE": 525,
    "name": "סאג'ור",
    "MGLSDE_L_1": 3330,
    "MGLSDE_L_2": 28,
    "MGLSDE_L_3": "2000-9999 תושבים,ישובים לא יהודים",
    "MGLSDE_L_4": "SAJUR"
  },
  {
    "lng": 35.3346874044988,
    "lat": 32.6066328769101,
    "OBJECTID_1": 100,
    "OBJECTID": 100,
    "SETL_CODE": 526,
    "name": "סולם",
    "MGLSDE_L_1": 2240,
    "MGLSDE_L_2": 28,
    "MGLSDE_L_3": "2000-9999 תושבים,ישובים לא יהודים",
    "MGLSDE_L_4": "SULAM"
  },
  {
    "lng": 35.35240580667,
    "lat": 32.9324512252876,
    "OBJECTID_1": 101,
    "OBJECTID": 101,
    "SETL_CODE": 527,
    "name": "שזור",
    "MGLSDE_L_1": 359,
    "MGLSDE_L_2": 31,
    "MGLSDE_L_3": "מושבים (כפרים שיתופיים) (ב)",
    "MGLSDE_L_4": "SHEZOR"
  },
  {
    "lng": 35.3246279491559,
    "lat": 32.7901663223751,
    "OBJECTID_1": 102,
    "OBJECTID": 102,
    "SETL_CODE": 528,
    "name": "עוזייר",
    "MGLSDE_L_1": 2310,
    "MGLSDE_L_2": 28,
    "MGLSDE_L_3": "2000-9999 תושבים,ישובים לא יהודים",
    "MGLSDE_L_4": "UZEIR"
  },
  {
    "lng": 35.1856652063498,
    "lat": 32.8266691959109,
    "OBJECTID_1": 103,
    "OBJECTID": 103,
    "SETL_CODE": 529,
    "name": "אעבלין",
    "MGLSDE_L_1": 10000,
    "MGLSDE_L_2": 27,
    "MGLSDE_L_3": "10000-19999 תושבים,ישובים לא יהודים",
    "MGLSDE_L_4": "I'BILLIN"
  },
  {
    "lng": 35.4029207670705,
    "lat": 32.8352532264158,
    "OBJECTID_1": 104,
    "OBJECTID": 104,
    "SETL_CODE": 530,
    "name": "עיילבון",
    "MGLSDE_L_1": 4040,
    "MGLSDE_L_2": 28,
    "MGLSDE_L_3": "2000-9999 תושבים,ישובים לא יהודים",
    "MGLSDE_L_4": "EILABUN"
  },
  {
    "lng": 35.3387832215782,
    "lat": 32.8511262987026,
    "OBJECTID_1": 105,
    "OBJECTID": 105,
    "SETL_CODE": 531,
    "name": "עראבה",
    "MGLSDE_L_1": 17900,
    "MGLSDE_L_2": 27,
    "MGLSDE_L_3": "10000-19999 תושבים,ישובים לא יהודים",
    "MGLSDE_L_4": "ARRABE"
  },
  {
    "lng": 35.3101828763122,
    "lat": 33.0480651866684,
    "OBJECTID_1": 106,
    "OBJECTID": 106,
    "SETL_CODE": 535,
    "name": "פסוטה",
    "MGLSDE_L_1": 2860,
    "MGLSDE_L_2": 28,
    "MGLSDE_L_3": "2000-9999 תושבים,ישובים לא יהודים",
    "MGLSDE_L_4": "FASSUTA"
  },
  {
    "lng": 35.3253682026895,
    "lat": 32.9785941529072,
    "OBJECTID_1": 107,
    "OBJECTID": 107,
    "SETL_CODE": 536,
    "name": "פקיעין (בוקייעה)",
    "MGLSDE_L_1": 4760,
    "MGLSDE_L_2": 28,
    "MGLSDE_L_3": "2000-9999 תושבים,ישובים לא יהודים",
    "MGLSDE_L_4": "PEQI'IN (BUQEI'A)"
  },
  {
    "lng": 34.9528469712673,
    "lat": 32.5979472313653,
    "OBJECTID_1": 108,
    "OBJECTID": 108,
    "SETL_CODE": 537,
    "name": "פוריידיס",
    "MGLSDE_L_1": 9350,
    "MGLSDE_L_2": 28,
    "MGLSDE_L_3": "2000-9999 תושבים,ישובים לא יהודים",
    "MGLSDE_L_4": "FUREIDIS"
  },
  {
    "lng": 35.234681479329,
    "lat": 32.8909677333766,
    "OBJECTID_1": 109,
    "OBJECTID": 109,
    "SETL_CODE": 538,
    "name": "שעב",
    "MGLSDE_L_1": 5450,
    "MGLSDE_L_2": 28,
    "MGLSDE_L_3": "2000-9999 תושבים,ישובים לא יהודים",
    "MGLSDE_L_4": "SHA'AB"
  },
  {
    "lng": 35.3106361817979,
    "lat": 32.7879424043081,
    "OBJECTID_1": 110,
    "OBJECTID": 110,
    "SETL_CODE": 539,
    "name": "רומאנה",
    "MGLSDE_L_1": 819,
    "MGLSDE_L_2": 45,
    "MGLSDE_L_3": "ישובים כפריים אחרים לא יהודים",
    "MGLSDE_L_4": "RUMMANE"
  },
  {
    "lng": 35.4878095976552,
    "lat": 33.0486789595391,
    "OBJECTID_1": 111,
    "OBJECTID": 111,
    "SETL_CODE": 540,
    "name": "ריחאנייה",
    "MGLSDE_L_1": 947,
    "MGLSDE_L_2": 45,
    "MGLSDE_L_3": "ישובים כפריים אחרים לא יהודים",
    "MGLSDE_L_4": "REIHANIYYE"
  },
  {
    "lng": 34.9115106336638,
    "lat": 32.5367284454697,
    "OBJECTID_1": 112,
    "OBJECTID": 112,
    "SETL_CODE": 541,
    "name": "ג'סר א-זרקא",
    "MGLSDE_L_1": 10200,
    "MGLSDE_L_2": 27,
    "MGLSDE_L_3": "10000-19999 תושבים,ישובים לא יהודים",
    "MGLSDE_L_4": "JISR AZ-ZARQA"
  },
  {
    "lng": 35.3086030332982,
    "lat": 32.7215114777594,
    "OBJECTID_1": 113,
    "OBJECTID": 113,
    "SETL_CODE": 542,
    "name": "ריינה",
    "MGLSDE_L_1": 14400,
    "MGLSDE_L_2": 27,
    "MGLSDE_L_3": "10000-19999 תושבים,ישובים לא יהודים",
    "MGLSDE_L_4": "REINE"
  },
  {
    "lng": 35.3667894119996,
    "lat": 32.938278392494,
    "OBJECTID_1": 114,
    "OBJECTID": 114,
    "SETL_CODE": 543,
    "name": "ראמה",
    "MGLSDE_L_1": 7280,
    "MGLSDE_L_2": 28,
    "MGLSDE_L_3": "2000-9999 תושבים,ישובים לא יהודים",
    "MGLSDE_L_4": "RAME"
  },
  {
    "lng": 35.3994053787488,
    "lat": 32.9403436342973,
    "OBJECTID_1": 115,
    "OBJECTID": 115,
    "SETL_CODE": 546,
    "name": "עין אל-אסד",
    "MGLSDE_L_1": 751,
    "MGLSDE_L_2": 45,
    "MGLSDE_L_3": "ישובים כפריים אחרים לא יהודים",
    "MGLSDE_L_4": "EIN AL-ASAD"
  },
  {
    "lng": 34.9001198250806,
    "lat": 32.3199296372628,
    "OBJECTID_1": 116,
    "OBJECTID": 116,
    "SETL_CODE": 549,
    "name": "גנות הדר",
    "MGLSDE_L_1": 233,
    "MGLSDE_L_2": 35,
    "MGLSDE_L_3": "ישובים כפריים יהודים אחרים",
    "MGLSDE_L_4": "GANNOT HADAR"
  },
  {
    "lng": 34.7551284458432,
    "lat": 31.671601395851,
    "OBJECTID_1": 117,
    "OBJECTID": 117,
    "SETL_CODE": 553,
    "name": "ניר בנים",
    "MGLSDE_L_1": 540,
    "MGLSDE_L_2": 31,
    "MGLSDE_L_3": "מושבים (כפרים שיתופיים) (ב)",
    "MGLSDE_L_4": "NIR BANIM"
  },
  {
    "lng": 34.7417751494645,
    "lat": 31.8322965152278,
    "OBJECTID_1": 118,
    "OBJECTID": 118,
    "SETL_CODE": 555,
    "name": "שדמה",
    "MGLSDE_L_1": 396,
    "MGLSDE_L_2": 31,
    "MGLSDE_L_3": "מושבים (כפרים שיתופיים) (ב)",
    "MGLSDE_L_4": "SHEDEMA"
  },
  {
    "lng": 35.0826803049436,
    "lat": 32.9504148891396,
    "OBJECTID_1": 119,
    "OBJECTID": 119,
    "SETL_CODE": 559,
    "name": "בוסתן הגליל",
    "MGLSDE_L_1": 440,
    "MGLSDE_L_2": 31,
    "MGLSDE_L_3": "מושבים (כפרים שיתופיים) (ב)",
    "MGLSDE_L_4": "BUSTAN HAGALIL"
  },
  {
    "lng": 34.8032535255454,
    "lat": 31.8444569650228,
    "OBJECTID_1": 120,
    "OBJECTID": 120,
    "SETL_CODE": 562,
    "name": "בית אלעזרי",
    "MGLSDE_L_1": 858,
    "MGLSDE_L_2": 31,
    "MGLSDE_L_3": "מושבים (כפרים שיתופיים) (ב)",
    "MGLSDE_L_4": "BET EL'AZARI"
  },
  {
    "lng": 34.9013553887679,
    "lat": 31.8228510643206,
    "OBJECTID_1": 121,
    "OBJECTID": 121,
    "SETL_CODE": 563,
    "name": "משמר דוד",
    "MGLSDE_L_1": 242,
    "MGLSDE_L_2": 33,
    "MGLSDE_L_3": "קיבוצים",
    "MGLSDE_L_4": "MISHMAR DAWID"
  },
  {
    "lng": 34.8164654879373,
    "lat": 31.7720545852246,
    "OBJECTID_1": 122,
    "OBJECTID": 122,
    "SETL_CODE": 564,
    "name": "רבדים",
    "MGLSDE_L_1": 296,
    "MGLSDE_L_2": 33,
    "MGLSDE_L_3": "קיבוצים",
    "MGLSDE_L_4": "REVADIM"
  },
  {
    "lng": 34.8079361878303,
    "lat": 32.0228263959495,
    "OBJECTID_1": 123,
    "OBJECTID": 123,
    "SETL_CODE": 565,
    "name": "אזור",
    "MGLSDE_L_1": 9670,
    "MGLSDE_L_2": 18,
    "MGLSDE_L_3": "2000-9999 תושבים,ישובים יהודים",
    "MGLSDE_L_4": "AZOR"
  },
  {
    "lng": 34.9515041658275,
    "lat": 31.7752212758893,
    "OBJECTID_1": 124,
    "OBJECTID": 124,
    "SETL_CODE": 566,
    "name": "גבעת שמש",
    "MGLSDE_L_1": 74,
    "MGLSDE_L_2": 34,
    "MGLSDE_L_3": "ישובים מוסדיים יהודים",
    "MGLSDE_L_4": "GIV'AT SHEMESH"
  },
  {
    "lng": 34.9696856392017,
    "lat": 31.7617686908908,
    "OBJECTID_1": 125,
    "OBJECTID": 125,
    "SETL_CODE": 567,
    "name": "צרעה",
    "MGLSDE_L_1": 701,
    "MGLSDE_L_2": 33,
    "MGLSDE_L_3": "קיבוצים",
    "MGLSDE_L_4": "ZOR'A"
  },
  {
    "lng": 35.2619467040239,
    "lat": 33.0172368219491,
    "OBJECTID_1": 126,
    "OBJECTID": 126,
    "SETL_CODE": 570,
    "name": "מעונה",
    "MGLSDE_L_1": 500,
    "MGLSDE_L_2": 31,
    "MGLSDE_L_3": "מושבים (כפרים שיתופיים) (ב)",
    "MGLSDE_L_4": "ME'ONA"
  },
  {
    "lng": 35.145081815942,
    "lat": 32.9707942122656,
    "OBJECTID_1": 127,
    "OBJECTID": 127,
    "SETL_CODE": 572,
    "name": "בית העמק",
    "MGLSDE_L_1": 444,
    "MGLSDE_L_2": 33,
    "MGLSDE_L_3": "קיבוצים",
    "MGLSDE_L_4": "BET HAEMEQ"
  },
  {
    "lng": 34.5742933914988,
    "lat": 31.6213725985908,
    "OBJECTID_1": 128,
    "OBJECTID": 128,
    "SETL_CODE": 573,
    "name": "מבקיעים",
    "MGLSDE_L_1": 229,
    "MGLSDE_L_2": 32,
    "MGLSDE_L_3": "מושבים שיתופיים",
    "MGLSDE_L_4": "MAVQI'IM"
  },
  {
    "lng": 35.1101119490793,
    "lat": 33.0410952342923,
    "OBJECTID_1": 129,
    "OBJECTID": 129,
    "SETL_CODE": 574,
    "name": "גשר הזיו",
    "MGLSDE_L_1": 491,
    "MGLSDE_L_2": 33,
    "MGLSDE_L_3": "קיבוצים",
    "MGLSDE_L_4": "GESHER HAZIW"
  },
  {
    "lng": 35.1665048878938,
    "lat": 32.9007546116096,
    "OBJECTID_1": 130,
    "OBJECTID": 130,
    "SETL_CODE": 575,
    "name": "יסעור",
    "MGLSDE_L_1": 269,
    "MGLSDE_L_2": 33,
    "MGLSDE_L_3": "קיבוצים",
    "MGLSDE_L_4": "YAS'UR"
  },
  {
    "lng": 35.1467394305892,
    "lat": 33.0204069250232,
    "OBJECTID_1": 131,
    "OBJECTID": 131,
    "SETL_CODE": 576,
    "name": "כברי",
    "MGLSDE_L_1": 728,
    "MGLSDE_L_2": 33,
    "MGLSDE_L_3": "קיבוצים",
    "MGLSDE_L_4": "KABRI"
  },
  {
    "lng": 34.8220692086841,
    "lat": 31.7977336506641,
    "OBJECTID_1": 132,
    "OBJECTID": 132,
    "SETL_CODE": 577,
    "name": "יד בנימין",
    "MGLSDE_L_1": 397,
    "MGLSDE_L_2": 35,
    "MGLSDE_L_3": "ישובים כפריים יהודים אחרים",
    "MGLSDE_L_4": "YAD BINYAMIN"
  },
  {
    "lng": 35.4347327655351,
    "lat": 33.0610613615012,
    "OBJECTID_1": 133,
    "OBJECTID": 133,
    "SETL_CODE": 578,
    "name": "סאסא",
    "MGLSDE_L_1": 371,
    "MGLSDE_L_2": 33,
    "MGLSDE_L_3": "קיבוצים",
    "MGLSDE_L_4": "SASA"
  },
  {
    "lng": 35.1148025187687,
    "lat": 33.0860412857772,
    "OBJECTID_1": 134,
    "OBJECTID": 134,
    "SETL_CODE": 579,
    "name": "כפר ראש הנקרה",
    "MGLSDE_L_1": 491,
    "MGLSDE_L_2": 33,
    "MGLSDE_L_3": "קיבוצים",
    "MGLSDE_L_4": "KEFAR ROSH HANIQRA"
  },
  {
    "lng": 34.9900994691316,
    "lat": 32.6462719782919,
    "OBJECTID_1": 135,
    "OBJECTID": 135,
    "SETL_CODE": 580,
    "name": "כרם מהר\"ל",
    "MGLSDE_L_1": 373,
    "MGLSDE_L_2": 31,
    "MGLSDE_L_3": "מושבים (כפרים שיתופיים) (ב)",
    "MGLSDE_L_4": "KEREM MAHARAL"
  },
  {
    "lng": 34.7490192212923,
    "lat": 31.886983782147,
    "OBJECTID_1": 136,
    "OBJECTID": 136,
    "SETL_CODE": 582,
    "name": "כפר הנגיד",
    "MGLSDE_L_1": 892,
    "MGLSDE_L_2": 31,
    "MGLSDE_L_3": "מושבים (כפרים שיתופיים) (ב)",
    "MGLSDE_L_4": "KEFAR HANAGID"
  },
  {
    "lng": 35.4526638210314,
    "lat": 32.7869965267703,
    "OBJECTID_1": 137,
    "OBJECTID": 137,
    "SETL_CODE": 585,
    "name": "לביא",
    "MGLSDE_L_1": 640,
    "MGLSDE_L_2": 33,
    "MGLSDE_L_3": "קיבוצים",
    "MGLSDE_L_4": "LAVI"
  },
  {
    "lng": 35.1818167040513,
    "lat": 32.5795358349447,
    "OBJECTID_1": 138,
    "OBJECTID": 138,
    "SETL_CODE": 586,
    "name": "מגידו",
    "MGLSDE_L_1": 310,
    "MGLSDE_L_2": 33,
    "MGLSDE_L_3": "קיבוצים",
    "MGLSDE_L_4": "MEGIDDO"
  },
  {
    "lng": 34.8779796665079,
    "lat": 32.046670504905,
    "OBJECTID_1": 139,
    "OBJECTID": 139,
    "SETL_CODE": 587,
    "name": "סביון",
    "MGLSDE_L_1": 2470,
    "MGLSDE_L_2": 18,
    "MGLSDE_L_3": "2000-9999 תושבים,ישובים יהודים",
    "MGLSDE_L_4": "SAVYON"
  },
  {
    "lng": 34.7909153575378,
    "lat": 31.7699700902113,
    "OBJECTID_1": 140,
    "OBJECTID": 140,
    "SETL_CODE": 588,
    "name": "בני ראם",
    "MGLSDE_L_1": 822,
    "MGLSDE_L_2": 31,
    "MGLSDE_L_3": "מושבים (כפרים שיתופיים) (ב)",
    "MGLSDE_L_4": "BENE RE'EM"
  },
  {
    "lng": 35.1344309382317,
    "lat": 33.0706464728838,
    "OBJECTID_1": 141,
    "OBJECTID": 141,
    "SETL_CODE": 589,
    "name": "בצת",
    "MGLSDE_L_1": 318,
    "MGLSDE_L_2": 31,
    "MGLSDE_L_3": "מושבים (כפרים שיתופיים) (ב)",
    "MGLSDE_L_4": "BEZET"
  },
  {
    "lng": 35.5528468209131,
    "lat": 32.5879494552047,
    "OBJECTID_1": 142,
    "OBJECTID": 142,
    "SETL_CODE": 590,
    "name": "נווה אור",
    "MGLSDE_L_1": 393,
    "MGLSDE_L_2": 33,
    "MGLSDE_L_3": "קיבוצים",
    "MGLSDE_L_4": "NEWE UR"
  },
  {
    "lng": 34.7472840915756,
    "lat": 31.8246073175886,
    "OBJECTID_1": 143,
    "OBJECTID": 143,
    "SETL_CODE": 591,
    "name": "עשרת",
    "MGLSDE_L_1": 1080,
    "MGLSDE_L_2": 35,
    "MGLSDE_L_3": "ישובים כפריים יהודים אחרים",
    "MGLSDE_L_4": "ASERET"
  },
  {
    "lng": 34.7721470187629,
    "lat": 31.7341942545464,
    "OBJECTID_1": 144,
    "OBJECTID": 144,
    "SETL_CODE": 593,
    "name": "ערוגות",
    "MGLSDE_L_1": 688,
    "MGLSDE_L_2": 31,
    "MGLSDE_L_3": "מושבים (כפרים שיתופיים) (ב)",
    "MGLSDE_L_4": "ARUGOT"
  },
  {
    "lng": 34.8559431175175,
    "lat": 32.003203181758,
    "OBJECTID_1": 145,
    "OBJECTID": 145,
    "SETL_CODE": 594,
    "name": "צפרייה",
    "MGLSDE_L_1": 623,
    "MGLSDE_L_2": 31,
    "MGLSDE_L_3": "מושבים (כפרים שיתופיים) (ב)",
    "MGLSDE_L_4": "ZAFRIYYA"
  },
  {
    "lng": 35.0979750878967,
    "lat": 32.9622155823248,
    "OBJECTID_1": 146,
    "OBJECTID": 146,
    "SETL_CODE": 595,
    "name": "לוחמי הגיטאות",
    "MGLSDE_L_1": 480,
    "MGLSDE_L_2": 33,
    "MGLSDE_L_3": "קיבוצים",
    "MGLSDE_L_4": "LOHAME HAGETA'OT"
  },
  {
    "lng": 35.5109377163419,
    "lat": 33.0978860756263,
    "OBJECTID_1": 147,
    "OBJECTID": 147,
    "SETL_CODE": 596,
    "name": "מלכייה",
    "MGLSDE_L_1": 305,
    "MGLSDE_L_2": 33,
    "MGLSDE_L_3": "קיבוצים",
    "MGLSDE_L_4": "MALKIYYA"
  },
  {
    "lng": 34.7073380630971,
    "lat": 31.9319514174131,
    "OBJECTID_1": 148,
    "OBJECTID": 148,
    "SETL_CODE": 597,
    "name": "פלמחים",
    "MGLSDE_L_1": 436,
    "MGLSDE_L_2": 33,
    "MGLSDE_L_3": "קיבוצים",
    "MGLSDE_L_4": "PALMAHIM"
  },
  {
    "lng": 34.7612350797775,
    "lat": 31.4462558551115,
    "OBJECTID_1": 149,
    "OBJECTID": 149,
    "SETL_CODE": 598,
    "name": "בית קמה",
    "MGLSDE_L_1": 216,
    "MGLSDE_L_2": 33,
    "MGLSDE_L_3": "קיבוצים",
    "MGLSDE_L_4": "BET QAMA"
  },
  {
    "lng": 35.4337660227598,
    "lat": 32.9274038481003,
    "OBJECTID_1": 150,
    "OBJECTID": 150,
    "SETL_CODE": 599,
    "name": "פרוד",
    "MGLSDE_L_1": 265,
    "MGLSDE_L_2": 33,
    "MGLSDE_L_3": "קיבוצים",
    "MGLSDE_L_4": "PAROD"
  },
  {
    "lng": 34.3961369639535,
    "lat": 31.33458787733,
    "OBJECTID_1": 151,
    "OBJECTID": 151,
    "SETL_CODE": 602,
    "name": "נירים",
    "MGLSDE_L_1": 365,
    "MGLSDE_L_2": 33,
    "MGLSDE_L_3": "קיבוצים",
    "MGLSDE_L_4": "NIRIM"
  },
  {
    "lng": 35.3237035340082,
    "lat": 33.0333082502223,
    "OBJECTID_1": 152,
    "OBJECTID": 152,
    "SETL_CODE": 603,
    "name": "אלקוש",
    "MGLSDE_L_1": 334,
    "MGLSDE_L_2": 31,
    "MGLSDE_L_3": "מושבים (כפרים שיתופיים) (ב)",
    "MGLSDE_L_4": "ELQOSH"
  },
  {
    "lng": 34.9344921787878,
    "lat": 31.9957788720568,
    "OBJECTID_1": 153,
    "OBJECTID": 153,
    "SETL_CODE": 604,
    "name": "בית עריף",
    "MGLSDE_L_1": 618,
    "MGLSDE_L_2": 31,
    "MGLSDE_L_3": "מושבים (כפרים שיתופיים) (ב)",
    "MGLSDE_L_4": "BET ARIF"
  },
  {
    "lng": 35.4570715152715,
    "lat": 32.9566734272178,
    "OBJECTID_1": 154,
    "OBJECTID": 154,
    "SETL_CODE": 605,
    "name": "כפר שמאי",
    "MGLSDE_L_1": 308,
    "MGLSDE_L_2": 31,
    "MGLSDE_L_3": "מושבים (כפרים שיתופיים) (ב)",
    "MGLSDE_L_4": "KEFAR SHAMMAY"
  },
  {
    "lng": 34.9252525835119,
    "lat": 32.0521763840194,
    "OBJECTID_1": 155,
    "OBJECTID": 155,
    "SETL_CODE": 606,
    "name": "מזור",
    "MGLSDE_L_1": 883,
    "MGLSDE_L_2": 31,
    "MGLSDE_L_3": "מושבים (כפרים שיתופיים) (ב)",
    "MGLSDE_L_4": "MAZOR"
  },
  {
    "lng": 35.4430529998336,
    "lat": 32.9905684471259,
    "OBJECTID_1": 156,
    "OBJECTID": 156,
    "SETL_CODE": 607,
    "name": "מירון",
    "MGLSDE_L_1": 805,
    "MGLSDE_L_2": 31,
    "MGLSDE_L_3": "מושבים (כפרים שיתופיים) (ב)",
    "MGLSDE_L_4": "MERON"
  },
  {
    "lng": 35.4394739047759,
    "lat": 33.0097278377809,
    "OBJECTID_1": 157,
    "OBJECTID": 157,
    "SETL_CODE": 609,
    "name": "כפר חושן",
    "MGLSDE_L_1": 579,
    "MGLSDE_L_2": 31,
    "MGLSDE_L_3": "מושבים (כפרים שיתופיים) (ב)",
    "MGLSDE_L_4": "KEFAR HOSHEN"
  },
  {
    "lng": 34.8450582197527,
    "lat": 31.8907320409537,
    "OBJECTID_1": 158,
    "OBJECTID": 158,
    "SETL_CODE": 610,
    "name": "סתרייה",
    "MGLSDE_L_1": 844,
    "MGLSDE_L_2": 31,
    "MGLSDE_L_3": "מושבים (כפרים שיתופיים) (ב)",
    "MGLSDE_L_4": "SITRIYYA"
  },
  {
    "lng": 34.9478104029384,
    "lat": 32.6487937148729,
    "OBJECTID_1": 159,
    "OBJECTID": 159,
    "SETL_CODE": 612,
    "name": "צרופה",
    "MGLSDE_L_1": 707,
    "MGLSDE_L_2": 31,
    "MGLSDE_L_3": "מושבים (כפרים שיתופיים) (ב)",
    "MGLSDE_L_4": "ZERUFA"
  },
  {
    "lng": 35.2785186811568,
    "lat": 32.7473805297266,
    "OBJECTID_1": 160,
    "OBJECTID": 160,
    "SETL_CODE": 613,
    "name": "ציפורי",
    "MGLSDE_L_1": 456,
    "MGLSDE_L_2": 31,
    "MGLSDE_L_3": "מושבים (כפרים שיתופיים) (ב)",
    "MGLSDE_L_4": "ZIPPORI"
  },
  {
    "lng": 35.2850415729613,
    "lat": 33.0846402398813,
    "OBJECTID_1": 161,
    "OBJECTID": 161,
    "SETL_CODE": 614,
    "name": "שומרה",
    "MGLSDE_L_1": 310,
    "MGLSDE_L_2": 31,
    "MGLSDE_L_3": "מושבים (כפרים שיתופיים) (ב)",
    "MGLSDE_L_4": "SHOMERA"
  },
  {
    "lng": 34.7959123081381,
    "lat": 31.8154282182043,
    "OBJECTID_1": 162,
    "OBJECTID": 162,
    "SETL_CODE": 615,
    "name": "קדרון",
    "MGLSDE_L_1": 941,
    "MGLSDE_L_2": 31,
    "MGLSDE_L_3": "מושבים (כפרים שיתופיים) (ב)",
    "MGLSDE_L_4": "QIDRON"
  },
  {
    "lng": 34.9280563998521,
    "lat": 32.0443989014385,
    "OBJECTID_1": 163,
    "OBJECTID": 163,
    "SETL_CODE": 616,
    "name": "רינתיה",
    "MGLSDE_L_1": 740,
    "MGLSDE_L_2": 31,
    "MGLSDE_L_3": "מושבים (כפרים שיתופיים) (ב)",
    "MGLSDE_L_4": "RINNATYA"
  },
  {
    "lng": 35.0292863549394,
    "lat": 32.4751669378143,
    "OBJECTID_1": 164,
    "OBJECTID": 164,
    "SETL_CODE": 617,
    "name": "ברקאי",
    "MGLSDE_L_1": 327,
    "MGLSDE_L_2": 33,
    "MGLSDE_L_3": "קיבוצים",
    "MGLSDE_L_4": "BARQAY"
  },
  {
    "lng": 34.9334118084142,
    "lat": 31.9683688924703,
    "OBJECTID_1": 165,
    "OBJECTID": 165,
    "SETL_CODE": 618,
    "name": "חדיד",
    "MGLSDE_L_1": 555,
    "MGLSDE_L_2": 31,
    "MGLSDE_L_3": "מושבים (כפרים שיתופיים) (ב)",
    "MGLSDE_L_4": "HADID"
  },
  {
    "lng": 35.4467680943207,
    "lat": 33.0225582711577,
    "OBJECTID_1": 166,
    "OBJECTID": 166,
    "SETL_CODE": 487,
    "name": "ג'ש (גוש חלב)",
    "MGLSDE_L_1": 2560,
    "MGLSDE_L_2": 28,
    "MGLSDE_L_3": "2000-9999 תושבים,ישובים לא יהודים",
    "MGLSDE_L_4": "JISH(GUSH HALAV)"
  },
  {
    "lng": 35.162243159757,
    "lat": 32.9533943955395,
    "OBJECTID_1": 167,
    "OBJECTID": 167,
    "SETL_CODE": 507,
    "name": "כפר יאסיף",
    "MGLSDE_L_1": 7820,
    "MGLSDE_L_2": 28,
    "MGLSDE_L_3": "2000-9999 תושבים,ישובים לא יהודים",
    "MGLSDE_L_4": "KAFAR YASIF"
  },
  {
    "lng": 35.1216679640719,
    "lat": 31.7943693531156,
    "OBJECTID_1": 168,
    "OBJECTID": 168,
    "SETL_CODE": 521,
    "name": "עין נקובא",
    "MGLSDE_L_1": 1650,
    "MGLSDE_L_2": 45,
    "MGLSDE_L_3": "ישובים כפריים אחרים לא יהודים",
    "MGLSDE_L_4": "EIN NAQQUBA"
  },
  {
    "lng": 35.3526541951463,
    "lat": 32.7220471181356,
    "OBJECTID_1": 169,
    "OBJECTID": 169,
    "SETL_CODE": 532,
    "name": "עין מאהל",
    "MGLSDE_L_1": 9840,
    "MGLSDE_L_2": 28,
    "MGLSDE_L_3": "2000-9999 תושבים,ישובים לא יהודים",
    "MGLSDE_L_4": "EIN MAHEL"
  },
  {
    "lng": 35.4041101301643,
    "lat": 32.6345709645851,
    "OBJECTID_1": 170,
    "OBJECTID": 170,
    "SETL_CODE": 547,
    "name": "טמרה (יזרעאל)",
    "MGLSDE_L_1": 1160,
    "MGLSDE_L_2": 45,
    "MGLSDE_L_3": "ישובים כפריים אחרים לא יהודים",
    "MGLSDE_L_4": "TAMRA (YIZRE'EL)"
  },
  {
    "lng": 34.761322608684,
    "lat": 31.8572782117264,
    "OBJECTID_1": 171,
    "OBJECTID": 171,
    "SETL_CODE": 571,
    "name": "בית גמליאל",
    "MGLSDE_L_1": 702,
    "MGLSDE_L_2": 31,
    "MGLSDE_L_3": "מושבים (כפרים שיתופיים) (ב)",
    "MGLSDE_L_4": "BET GAMLI'EL"
  },
  {
    "lng": 34.5217330622824,
    "lat": 31.6083912674299,
    "OBJECTID_1": 172,
    "OBJECTID": 172,
    "SETL_CODE": 584,
    "name": "זיקים",
    "MGLSDE_L_1": 344,
    "MGLSDE_L_2": 33,
    "MGLSDE_L_3": "קיבוצים",
    "MGLSDE_L_4": "ZIQIM"
  },
  {
    "lng": 34.6926501952308,
    "lat": 31.8204591590003,
    "OBJECTID_1": 173,
    "OBJECTID": 173,
    "SETL_CODE": 592,
    "name": "בני דרום",
    "MGLSDE_L_1": 300,
    "MGLSDE_L_2": 32,
    "MGLSDE_L_3": "מושבים שיתופיים",
    "MGLSDE_L_4": "BENE DAROM"
  },
  {
    "lng": 34.8957741018792,
    "lat": 31.6122589721762,
    "OBJECTID_1": 174,
    "OBJECTID": 174,
    "SETL_CODE": 619,
    "name": "בית גוברין",
    "MGLSDE_L_1": 231,
    "MGLSDE_L_2": 33,
    "MGLSDE_L_3": "קיבוצים",
    "MGLSDE_L_4": "BET GUVRIN"
  },
  {
    "lng": 34.6910775427782,
    "lat": 31.7028726227964,
    "OBJECTID_1": 175,
    "OBJECTID": 175,
    "SETL_CODE": 620,
    "name": "משואות יצחק",
    "MGLSDE_L_1": 548,
    "MGLSDE_L_2": 32,
    "MGLSDE_L_3": "מושבים שיתופיים",
    "MGLSDE_L_4": "MASSU'OT YIZHAQ"
  },
  {
    "lng": 34.7186103324409,
    "lat": 31.6953773541279,
    "OBJECTID_1": 176,
    "OBJECTID": 176,
    "SETL_CODE": 622,
    "name": "עין צורים",
    "MGLSDE_L_1": 527,
    "MGLSDE_L_2": 33,
    "MGLSDE_L_3": "קיבוצים",
    "MGLSDE_L_4": "EN ZURIM"
  },
  {
    "lng": 34.9550560221171,
    "lat": 32.1506960922544,
    "OBJECTID_1": 177,
    "OBJECTID": 177,
    "SETL_CODE": 627,
    "name": "ג'לג'וליה",
    "MGLSDE_L_1": 6860,
    "MGLSDE_L_2": 28,
    "MGLSDE_L_3": "2000-9999 תושבים,ישובים לא יהודים",
    "MGLSDE_L_4": "JALJULYE"
  },
  {
    "lng": 35.0378575976148,
    "lat": 32.3991503975494,
    "OBJECTID_1": 178,
    "OBJECTID": 178,
    "SETL_CODE": 628,
    "name": "גת",
    "MGLSDE_L_1": 8650,
    "MGLSDE_L_2": 28,
    "MGLSDE_L_3": "2000-9999 תושבים,ישובים לא יהודים",
    "MGLSDE_L_4": "JATT"
  },
  {
    "lng": 34.970905233753,
    "lat": 32.1310763628142,
    "OBJECTID_1": 179,
    "OBJECTID": 179,
    "SETL_CODE": 633,
    "name": "כפר ברא",
    "MGLSDE_L_1": 2310,
    "MGLSDE_L_2": 28,
    "MGLSDE_L_3": "2000-9999 תושבים,ישובים לא יהודים",
    "MGLSDE_L_4": "KAFAR BARA"
  },
  {
    "lng": 34.975985039267,
    "lat": 32.1145123561958,
    "OBJECTID_1": 180,
    "OBJECTID": 180,
    "SETL_CODE": 634,
    "name": "כפר קאסם",
    "MGLSDE_L_1": 15700,
    "MGLSDE_L_2": 27,
    "MGLSDE_L_3": "10000-19999 תושבים,ישובים לא יהודים",
    "MGLSDE_L_4": "KAFAR QASEM"
  },
  {
    "lng": 35.29645167223,
    "lat": 32.5141621628612,
    "OBJECTID_1": 181,
    "OBJECTID": 181,
    "SETL_CODE": 635,
    "name": "מוקייבלה",
    "MGLSDE_L_1": 2810,
    "MGLSDE_L_2": 28,
    "MGLSDE_L_3": "2000-9999 תושבים,ישובים לא יהודים",
    "MGLSDE_L_4": "MUQEIBLE"
  },
  {
    "lng": 35.3224831153568,
    "lat": 32.5228439840863,
    "OBJECTID_1": 182,
    "OBJECTID": 182,
    "SETL_CODE": 636,
    "name": "צנדלה",
    "MGLSDE_L_1": 1330,
    "MGLSDE_L_2": 45,
    "MGLSDE_L_3": "ישובים כפריים אחרים לא יהודים",
    "MGLSDE_L_4": "SANDALA"
  },
  {
    "lng": 35.0917791238782,
    "lat": 32.5008377402292,
    "OBJECTID_1": 183,
    "OBJECTID": 183,
    "SETL_CODE": 637,
    "name": "ערערה",
    "MGLSDE_L_1": 14500,
    "MGLSDE_L_2": 27,
    "MGLSDE_L_3": "10000-19999 תושבים,ישובים לא יהודים",
    "MGLSDE_L_4": "AR'ARA"
  },
  {
    "lng": 35.0929806545534,
    "lat": 32.4732907762766,
    "OBJECTID_1": 184,
    "OBJECTID": 184,
    "SETL_CODE": 639,
    "name": "ברטעה",
    "MGLSDE_L_1": 2210,
    "MGLSDE_L_2": 28,
    "MGLSDE_L_3": "2000-9999 תושבים,ישובים לא יהודים",
    "MGLSDE_L_4": "BARTAA"
  },
  {
    "lng": 35.1855716578313,
    "lat": 32.5492385488619,
    "OBJECTID_1": 185,
    "OBJECTID": 185,
    "SETL_CODE": 640,
    "name": "זלפה",
    "MGLSDE_L_1": 2740,
    "MGLSDE_L_2": 28,
    "MGLSDE_L_3": "2000-9999 תושבים,ישובים לא יהודים",
    "MGLSDE_L_4": "ZALAFE"
  },
  {
    "lng": 35.1551482426755,
    "lat": 32.5442661161739,
    "OBJECTID_1": 186,
    "OBJECTID": 186,
    "SETL_CODE": 642,
    "name": "מוצמוץ",
    "MGLSDE_L_1": 2650,
    "MGLSDE_L_2": 28,
    "MGLSDE_L_3": "2000-9999 תושבים,ישובים לא יהודים",
    "MGLSDE_L_4": "MUSMUS"
  },
  {
    "lng": 35.1041219111686,
    "lat": 32.5315507247546,
    "OBJECTID_1": 187,
    "OBJECTID": 187,
    "SETL_CODE": 643,
    "name": "מועאוויה",
    "MGLSDE_L_1": 2030,
    "MGLSDE_L_2": 28,
    "MGLSDE_L_3": "2000-9999 תושבים,ישובים לא יהודים",
    "MGLSDE_L_4": "MU'AWIYE"
  },
  {
    "lng": 35.1986501433702,
    "lat": 32.5433125791501,
    "OBJECTID_1": 188,
    "OBJECTID": 188,
    "SETL_CODE": 644,
    "name": "סאלם",
    "MGLSDE_L_1": 825,
    "MGLSDE_L_2": 45,
    "MGLSDE_L_3": "ישובים כפריים אחרים לא יהודים",
    "MGLSDE_L_4": "SALEM"
  },
  {
    "lng": 35.1566393219416,
    "lat": 32.5537135656405,
    "OBJECTID_1": 189,
    "OBJECTID": 189,
    "SETL_CODE": 645,
    "name": "מושיירפה",
    "MGLSDE_L_1": 2160,
    "MGLSDE_L_2": 28,
    "MGLSDE_L_3": "2000-9999 תושבים,ישובים לא יהודים",
    "MGLSDE_L_4": "MUSHEIRFE"
  },
  {
    "lng": 35.048074381248,
    "lat": 32.4403305205332,
    "OBJECTID_1": 190,
    "OBJECTID": 190,
    "SETL_CODE": 648,
    "name": "מצר",
    "MGLSDE_L_1": 370,
    "MGLSDE_L_2": 33,
    "MGLSDE_L_3": "קיבוצים",
    "MGLSDE_L_4": "MEZER"
  },
  {
    "lng": 35.042570076572,
    "lat": 32.4445045503112,
    "OBJECTID_1": 191,
    "OBJECTID": 191,
    "SETL_CODE": 649,
    "name": "מייסר",
    "MGLSDE_L_1": 1480,
    "MGLSDE_L_2": 45,
    "MGLSDE_L_3": "ישובים כפריים אחרים לא יהודים",
    "MGLSDE_L_4": "MEISER"
  },
  {
    "lng": 35.1124881898283,
    "lat": 32.7621152129938,
    "OBJECTID_1": 192,
    "OBJECTID": 192,
    "SETL_CODE": 652,
    "name": "אבטין",
    "MGLSDE_L_1": 1990,
    "MGLSDE_L_2": 45,
    "MGLSDE_L_3": "ישובים כפריים אחרים לא יהודים",
    "MGLSDE_L_4": "IBTIN"
  },
  {
    "lng": 35.0504676066697,
    "lat": 32.504855613382,
    "OBJECTID_1": 193,
    "OBJECTID": 193,
    "SETL_CODE": 654,
    "name": "כפר קרע",
    "MGLSDE_L_1": 13100,
    "MGLSDE_L_2": 27,
    "MGLSDE_L_3": "10000-19999 תושבים,ישובים לא יהודים",
    "MGLSDE_L_4": "KAFAR QARA"
  },
  {
    "lng": 35.1479966825718,
    "lat": 32.9939889646303,
    "OBJECTID_1": 194,
    "OBJECTID": 194,
    "SETL_CODE": 658,
    "name": "שייח' דנון",
    "MGLSDE_L_1": 2150,
    "MGLSDE_L_2": 28,
    "MGLSDE_L_3": "2000-9999 תושבים,ישובים לא יהודים",
    "MGLSDE_L_4": "SHEIKH DANNUN"
  },
  {
    "lng": 34.9979430473864,
    "lat": 32.2894798827218,
    "OBJECTID_1": 195,
    "OBJECTID": 195,
    "SETL_CODE": 661,
    "name": "שער אפרים",
    "MGLSDE_L_1": 932,
    "MGLSDE_L_2": 31,
    "MGLSDE_L_3": "מושבים (כפרים שיתופיים) (ב)",
    "MGLSDE_L_4": "SHA'AR EFRAYIM"
  },
  {
    "lng": 35.2994071901162,
    "lat": 32.9979576351467,
    "OBJECTID_1": 196,
    "OBJECTID": 196,
    "SETL_CODE": 662,
    "name": "חוסן",
    "MGLSDE_L_1": 541,
    "MGLSDE_L_2": 31,
    "MGLSDE_L_3": "מושבים (כפרים שיתופיים) (ב)",
    "MGLSDE_L_4": "HOSEN"
  },
  {
    "lng": 34.9333545847644,
    "lat": 32.0132256706288,
    "OBJECTID_1": 197,
    "OBJECTID": 197,
    "SETL_CODE": 663,
    "name": "טירת יהודה",
    "MGLSDE_L_1": 666,
    "MGLSDE_L_2": 31,
    "MGLSDE_L_3": "מושבים (כפרים שיתופיים) (ב)",
    "MGLSDE_L_4": "TIRAT YEHUDA"
  },
  {
    "lng": 35.4710273755546,
    "lat": 33.0339861960275,
    "OBJECTID_1": 198,
    "OBJECTID": 198,
    "SETL_CODE": 664,
    "name": "כרם בן זמרה",
    "MGLSDE_L_1": 396,
    "MGLSDE_L_2": 31,
    "MGLSDE_L_3": "מושבים (כפרים שיתופיים) (ב)",
    "MGLSDE_L_4": "KEREM BEN ZIMRA"
  },
  {
    "lng": 34.5804169902279,
    "lat": 31.4514863783502,
    "OBJECTID_1": 199,
    "OBJECTID": 199,
    "SETL_CODE": 665,
    "name": "תקומה",
    "MGLSDE_L_1": 421,
    "MGLSDE_L_2": 31,
    "MGLSDE_L_3": "מושבים (כפרים שיתופיים) (ב)",
    "MGLSDE_L_4": "TEQUMA"
  },
  {
    "lng": 34.8459143424507,
    "lat": 31.2685099917549,
    "OBJECTID_1": 200,
    "OBJECTID": 200,
    "SETL_CODE": 666,
    "name": "עומר",
    "MGLSDE_L_1": 5840,
    "MGLSDE_L_2": 18,
    "MGLSDE_L_3": "2000-9999 תושבים,ישובים יהודים",
    "MGLSDE_L_4": "OMER"
  },
  {
    "lng": 35.3929923013942,
    "lat": 33.0218007034776,
    "OBJECTID_1": 201,
    "OBJECTID": 201,
    "SETL_CODE": 667,
    "name": "ברעם",
    "MGLSDE_L_1": 488,
    "MGLSDE_L_2": 33,
    "MGLSDE_L_3": "קיבוצים",
    "MGLSDE_L_4": "BAR'AM"
  },
  {
    "lng": 34.5631319784657,
    "lat": 31.5007795408582,
    "OBJECTID_1": 202,
    "OBJECTID": 202,
    "SETL_CODE": 668,
    "name": "מפלסים",
    "MGLSDE_L_1": 424,
    "MGLSDE_L_2": 33,
    "MGLSDE_L_3": "קיבוצים",
    "MGLSDE_L_4": "MEFALLESIM"
  },
  {
    "lng": 34.9447700109225,
    "lat": 31.8717716116433,
    "OBJECTID_1": 203,
    "OBJECTID": 203,
    "SETL_CODE": 670,
    "name": "משמר איילון",
    "MGLSDE_L_1": 396,
    "MGLSDE_L_2": 31,
    "MGLSDE_L_3": "מושבים (כפרים שיתופיים) (ב)",
    "MGLSDE_L_4": "MISHMAR AYYALON"
  },
  {
    "lng": 35.1262631931283,
    "lat": 31.8042383003577,
    "OBJECTID_1": 204,
    "OBJECTID": 204,
    "SETL_CODE": 672,
    "name": "בית נקופה",
    "MGLSDE_L_1": 394,
    "MGLSDE_L_2": 31,
    "MGLSDE_L_3": "מושבים (כפרים שיתופיים) (ב)",
    "MGLSDE_L_4": "BET NEQOFA"
  },
  {
    "lng": 35.1111291483957,
    "lat": 33.0607147129996,
    "OBJECTID_1": 205,
    "OBJECTID": 205,
    "SETL_CODE": 674,
    "name": "לימן",
    "MGLSDE_L_1": 539,
    "MGLSDE_L_2": 31,
    "MGLSDE_L_3": "מושבים (כפרים שיתופיים) (ב)",
    "MGLSDE_L_4": "LIMAN"
  },
  {
    "lng": 34.9331873063661,
    "lat": 32.6408368926345,
    "OBJECTID_1": 206,
    "OBJECTID": 206,
    "SETL_CODE": 675,
    "name": "הבונים",
    "MGLSDE_L_1": 249,
    "MGLSDE_L_2": 32,
    "MGLSDE_L_3": "מושבים שיתופיים",
    "MGLSDE_L_4": "HABONIM"
  },
  {
    "lng": 34.4014865669292,
    "lat": 31.3515144370782,
    "OBJECTID_1": 207,
    "OBJECTID": 207,
    "SETL_CODE": 676,
    "name": "עין השלושה",
    "MGLSDE_L_1": 340,
    "MGLSDE_L_2": 33,
    "MGLSDE_L_3": "קיבוצים",
    "MGLSDE_L_4": "EN HASHELOSHA"
  },
  {
    "lng": 35.2375603925082,
    "lat": 32.7519610417178,
    "OBJECTID_1": 208,
    "OBJECTID": 208,
    "SETL_CODE": 677,
    "name": "הסוללים",
    "MGLSDE_L_1": 557,
    "MGLSDE_L_2": 33,
    "MGLSDE_L_3": "קיבוצים",
    "MGLSDE_L_4": "HASOLELIM"
  },
  {
    "lng": 35.6006926517866,
    "lat": 32.7062481798758,
    "OBJECTID_1": 209,
    "OBJECTID": 209,
    "SETL_CODE": 678,
    "name": "מעגן",
    "MGLSDE_L_1": 339,
    "MGLSDE_L_2": 33,
    "MGLSDE_L_3": "קיבוצים",
    "MGLSDE_L_4": "MA'AGAN"
  },
  {
    "lng": 34.9930895232425,
    "lat": 32.5317175728932,
    "OBJECTID_1": 210,
    "OBJECTID": 210,
    "SETL_CODE": 679,
    "name": "אביאל",
    "MGLSDE_L_1": 366,
    "MGLSDE_L_2": 31,
    "MGLSDE_L_3": "מושבים (כפרים שיתופיים) (ב)",
    "MGLSDE_L_4": "AVI'EL"
  },
  {
    "lng": 34.9949913454512,
    "lat": 32.3698219694086,
    "OBJECTID_1": 211,
    "OBJECTID": 211,
    "SETL_CODE": 680,
    "name": "אומץ",
    "MGLSDE_L_1": 380,
    "MGLSDE_L_2": 31,
    "MGLSDE_L_3": "מושבים (כפרים שיתופיים) (ב)",
    "MGLSDE_L_4": "OMEZ"
  },
  {
    "lng": 34.8531216070731,
    "lat": 32.0772067364573,
    "OBJECTID_1": 212,
    "OBJECTID": 212,
    "SETL_CODE": 681,
    "name": "גבעת שמואל",
    "MGLSDE_L_1": 15200,
    "MGLSDE_L_2": 17,
    "MGLSDE_L_3": "10000-19999 תושבים,ישובים יהודים",
    "MGLSDE_L_4": "GIV'AT SHEMU'EL"
  },
  {
    "lng": 35.0674170420562,
    "lat": 32.6320889340107,
    "OBJECTID_1": 213,
    "OBJECTID": 213,
    "SETL_CODE": 682,
    "name": "אליקים",
    "MGLSDE_L_1": 569,
    "MGLSDE_L_2": 35,
    "MGLSDE_L_3": "ישובים כפריים יהודים אחרים",
    "MGLSDE_L_4": "ELYAQIM"
  },
  {
    "lng": 34.9575008067487,
    "lat": 32.6630785183514,
    "OBJECTID_1": 214,
    "OBJECTID": 214,
    "SETL_CODE": 683,
    "name": "גבע כרמל",
    "MGLSDE_L_1": 635,
    "MGLSDE_L_2": 31,
    "MGLSDE_L_3": "מושבים (כפרים שיתופיים) (ב)",
    "MGLSDE_L_4": "GEVA  KARMEL"
  },
  {
    "lng": 34.7521928252854,
    "lat": 31.8428613730924,
    "OBJECTID_1": 215,
    "OBJECTID": 215,
    "SETL_CODE": 685,
    "name": "בניה",
    "MGLSDE_L_1": 679,
    "MGLSDE_L_2": 31,
    "MGLSDE_L_3": "מושבים (כפרים שיתופיים) (ב)",
    "MGLSDE_L_4": "BENAYA"
  },
  {
    "lng": 34.9396323493517,
    "lat": 32.1717140960313,
    "OBJECTID_1": 216,
    "OBJECTID": 216,
    "SETL_CODE": 686,
    "name": "נווה ימין",
    "MGLSDE_L_1": 946,
    "MGLSDE_L_2": 31,
    "MGLSDE_L_3": "מושבים (כפרים שיתופיים) (ב)",
    "MGLSDE_L_4": "NEWE YAMIN"
  },
  {
    "lng": 34.9475732133313,
    "lat": 32.6294299517662,
    "OBJECTID_1": 217,
    "OBJECTID": 217,
    "SETL_CODE": 687,
    "name": "עין איילה",
    "MGLSDE_L_1": 586,
    "MGLSDE_L_2": 31,
    "MGLSDE_L_3": "מושבים (כפרים שיתופיים) (ב)",
    "MGLSDE_L_4": "EN AYYALA"
  },
  {
    "lng": 35.4999417625748,
    "lat": 33.0518591410996,
    "OBJECTID_1": 218,
    "OBJECTID": 218,
    "SETL_CODE": 688,
    "name": "עלמה",
    "MGLSDE_L_1": 732,
    "MGLSDE_L_2": 31,
    "MGLSDE_L_3": "מושבים (כפרים שיתופיים) (ב)",
    "MGLSDE_L_4": "ALMA"
  },
  {
    "lng": 34.9588888150623,
    "lat": 32.7289704840775,
    "OBJECTID_1": 219,
    "OBJECTID": 219,
    "SETL_CODE": 689,
    "name": "מגדים",
    "MGLSDE_L_1": 707,
    "MGLSDE_L_2": 31,
    "MGLSDE_L_3": "מושבים (כפרים שיתופיים) (ב)",
    "MGLSDE_L_4": "MEGADIM"
  },
  {
    "lng": 34.7564677757051,
    "lat": 31.7444206791972,
    "OBJECTID_1": 220,
    "OBJECTID": 220,
    "SETL_CODE": 690,
    "name": "כפר אחים",
    "MGLSDE_L_1": 390,
    "MGLSDE_L_2": 31,
    "MGLSDE_L_3": "מושבים (כפרים שיתופיים) (ב)",
    "MGLSDE_L_4": "KEFAR AHIM"
  },
  {
    "lng": 34.7292275444358,
    "lat": 31.6968086779423,
    "OBJECTID_1": 221,
    "OBJECTID": 221,
    "SETL_CODE": 692,
    "name": "שפיר",
    "MGLSDE_L_1": 346,
    "MGLSDE_L_2": 31,
    "MGLSDE_L_3": "מושבים (כפרים שיתופיים) (ב)",
    "MGLSDE_L_4": "SHAFIR"
  },
  {
    "lng": 34.9819180156667,
    "lat": 31.6881552212046,
    "OBJECTID_1": 222,
    "OBJECTID": 222,
    "SETL_CODE": 693,
    "name": "נתיב הל\"ה",
    "MGLSDE_L_1": 420,
    "MGLSDE_L_2": 33,
    "MGLSDE_L_3": "קיבוצים",
    "MGLSDE_L_4": "NETIV HALAMED-HE"
  },
  {
    "lng": 34.9156232243386,
    "lat": 32.5563282493292,
    "OBJECTID_1": 223,
    "OBJECTID": 223,
    "SETL_CODE": 694,
    "name": "מעגן מיכאל",
    "MGLSDE_L_1": 1290,
    "MGLSDE_L_2": 33,
    "MGLSDE_L_3": "קיבוצים",
    "MGLSDE_L_4": "MA'AGAN MIKHA'EL"
  },
  {
    "lng": 34.4290808669947,
    "lat": 31.2982796081947,
    "OBJECTID_1": 224,
    "OBJECTID": 224,
    "SETL_CODE": 695,
    "name": "מגן",
    "MGLSDE_L_1": 437,
    "MGLSDE_L_2": 33,
    "MGLSDE_L_3": "קיבוצים",
    "MGLSDE_L_4": "MAGEN"
  },
  {
    "lng": 34.8500033636913,
    "lat": 31.9900947639612,
    "OBJECTID_1": 225,
    "OBJECTID": 225,
    "SETL_CODE": 696,
    "name": "כפר חב\"ד",
    "MGLSDE_L_1": 4220,
    "MGLSDE_L_2": 18,
    "MGLSDE_L_3": "2000-9999 תושבים,ישובים יהודים",
    "MGLSDE_L_4": "KEFAR HABAD"
  },
  {
    "lng": 34.9850667365664,
    "lat": 32.3215257708361,
    "OBJECTID_1": 226,
    "OBJECTID": 226,
    "SETL_CODE": 697,
    "name": "בארותיים",
    "MGLSDE_L_1": 508,
    "MGLSDE_L_2": 31,
    "MGLSDE_L_3": "מושבים (כפרים שיתופיים) (ב)",
    "MGLSDE_L_4": "BE'EROTAYIM"
  },
  {
    "lng": 34.9624936334709,
    "lat": 32.3246312050809,
    "OBJECTID_1": 227,
    "OBJECTID": 227,
    "SETL_CODE": 698,
    "name": "בורגתה",
    "MGLSDE_L_1": 857,
    "MGLSDE_L_2": 31,
    "MGLSDE_L_3": "מושבים (כפרים שיתופיים) (ב)",
    "MGLSDE_L_4": "BURGETA"
  },
  {
    "lng": 34.6361095939058,
    "lat": 31.6874698393653,
    "OBJECTID_1": 228,
    "OBJECTID": 228,
    "SETL_CODE": 699,
    "name": "ניר ישראל",
    "MGLSDE_L_1": 604,
    "MGLSDE_L_2": 31,
    "MGLSDE_L_3": "מושבים (כפרים שיתופיים) (ב)",
    "MGLSDE_L_4": "NIR YISRA'EL"
  },
  {
    "lng": 34.7699910328909,
    "lat": 31.7806575783498,
    "OBJECTID_1": 229,
    "OBJECTID": 229,
    "SETL_CODE": 700,
    "name": "חצב",
    "MGLSDE_L_1": 867,
    "MGLSDE_L_2": 31,
    "MGLSDE_L_3": "מושבים (כפרים שיתופיים) (ב)",
    "MGLSDE_L_4": "HAZAV"
  },
  {
    "lng": 35.4837547743518,
    "lat": 32.8125428337556,
    "OBJECTID_1": 230,
    "OBJECTID": 230,
    "SETL_CODE": 701,
    "name": "ארבל",
    "MGLSDE_L_1": 339,
    "MGLSDE_L_2": 31,
    "MGLSDE_L_3": "מושבים (כפרים שיתופיים) (ב)",
    "MGLSDE_L_4": "ARBEL"
  },
  {
    "lng": 35.6218787428508,
    "lat": 32.7251645347329,
    "OBJECTID_1": 231,
    "OBJECTID": 231,
    "SETL_CODE": 702,
    "name": "האון",
    "MGLSDE_L_1": 191,
    "MGLSDE_L_2": 33,
    "MGLSDE_L_3": "קיבוצים",
    "MGLSDE_L_4": "HAON"
  },
  {
    "lng": 35.1984125864267,
    "lat": 32.5554077281111,
    "OBJECTID_1": 232,
    "OBJECTID": 232,
    "SETL_CODE": 703,
    "name": "גבעת עוז",
    "MGLSDE_L_1": 336,
    "MGLSDE_L_2": 33,
    "MGLSDE_L_3": "קיבוצים",
    "MGLSDE_L_4": "GIV'AT OZ"
  },
  {
    "lng": 34.9484560800609,
    "lat": 32.0611609889159,
    "OBJECTID_1": 233,
    "OBJECTID": 233,
    "SETL_CODE": 705,
    "name": "נחשונים",
    "MGLSDE_L_1": 290,
    "MGLSDE_L_2": 33,
    "MGLSDE_L_3": "קיבוצים",
    "MGLSDE_L_4": "NAHSHONIM"
  },
  {
    "lng": 34.6035053857416,
    "lat": 31.6279954788273,
    "OBJECTID_1": 234,
    "OBJECTID": 234,
    "SETL_CODE": 706,
    "name": "גיאה",
    "MGLSDE_L_1": 493,
    "MGLSDE_L_2": 31,
    "MGLSDE_L_3": "מושבים (כפרים שיתופיים) (ב)",
    "MGLSDE_L_4": "GE'A"
  },
  {
    "lng": 34.9320360730018,
    "lat": 31.9327370098517,
    "OBJECTID_1": 235,
    "OBJECTID": 235,
    "SETL_CODE": 707,
    "name": "כפר דניאל",
    "MGLSDE_L_1": 274,
    "MGLSDE_L_2": 32,
    "MGLSDE_L_3": "מושבים שיתופיים",
    "MGLSDE_L_4": "KEFAR DANIYYEL"
  },
  {
    "lng": 35.1625426395805,
    "lat": 32.97897967585,
    "OBJECTID_1": 236,
    "OBJECTID": 236,
    "SETL_CODE": 708,
    "name": "עמקה",
    "MGLSDE_L_1": 523,
    "MGLSDE_L_2": 31,
    "MGLSDE_L_3": "מושבים (כפרים שיתופיים) (ב)",
    "MGLSDE_L_4": "AMQA"
  },
  {
    "lng": 34.6769967107944,
    "lat": 31.3256563084741,
    "OBJECTID_1": 237,
    "OBJECTID": 237,
    "SETL_CODE": 709,
    "name": "תפרח",
    "MGLSDE_L_1": 1190,
    "MGLSDE_L_2": 31,
    "MGLSDE_L_3": "מושבים (כפרים שיתופיים) (ב)",
    "MGLSDE_L_4": "TIFRAH"
  },
  {
    "lng": 35.1618897109992,
    "lat": 31.7823758265033,
    "OBJECTID_1": 238,
    "OBJECTID": 238,
    "SETL_CODE": 710,
    "name": "בית זית",
    "MGLSDE_L_1": 1110,
    "MGLSDE_L_2": 31,
    "MGLSDE_L_3": "מושבים (כפרים שיתופיים) (ב)",
    "MGLSDE_L_4": "BET ZAYIT"
  },
  {
    "lng": 34.9102079088112,
    "lat": 31.8893595398899,
    "OBJECTID_1": 239,
    "OBJECTID": 239,
    "SETL_CODE": 711,
    "name": "עזריה",
    "MGLSDE_L_1": 731,
    "MGLSDE_L_2": 31,
    "MGLSDE_L_3": "מושבים (כפרים שיתופיים) (ב)",
    "MGLSDE_L_4": "AZARYA"
  },
  {
    "lng": 35.1236845063091,
    "lat": 33.0058526919217,
    "OBJECTID_1": 240,
    "OBJECTID": 240,
    "SETL_CODE": 712,
    "name": "בן עמי",
    "MGLSDE_L_1": 403,
    "MGLSDE_L_2": 31,
    "MGLSDE_L_3": "מושבים (כפרים שיתופיים) (ב)",
    "MGLSDE_L_4": "BEN AMMI"
  },
  {
    "lng": 34.4604281661173,
    "lat": 31.3855708715185,
    "OBJECTID_1": 241,
    "OBJECTID": 241,
    "SETL_CODE": 713,
    "name": "רעים",
    "MGLSDE_L_1": 334,
    "MGLSDE_L_2": 33,
    "MGLSDE_L_3": "קיבוצים",
    "MGLSDE_L_4": "RE'IM"
  },
  {
    "lng": 34.5667522205345,
    "lat": 31.5600426959622,
    "OBJECTID_1": 242,
    "OBJECTID": 242,
    "SETL_CODE": 714,
    "name": "ארז",
    "MGLSDE_L_1": 330,
    "MGLSDE_L_2": 33,
    "MGLSDE_L_3": "קיבוצים",
    "MGLSDE_L_4": "EREZ"
  },
  {
    "lng": 35.0095960945261,
    "lat": 32.3950029811359,
    "OBJECTID_1": 243,
    "OBJECTID": 243,
    "SETL_CODE": 715,
    "name": "להבות חביבה",
    "MGLSDE_L_1": 265,
    "MGLSDE_L_2": 33,
    "MGLSDE_L_3": "קיבוצים",
    "MGLSDE_L_4": "LAHAVOT HAVIVA"
  },
  {
    "lng": 34.9788434071656,
    "lat": 32.211018707818,
    "OBJECTID_1": 244,
    "OBJECTID": 244,
    "SETL_CODE": 716,
    "name": "אייל",
    "MGLSDE_L_1": 385,
    "MGLSDE_L_2": 33,
    "MGLSDE_L_3": "קיבוצים",
    "MGLSDE_L_4": "EYAL"
  },
  {
    "lng": 34.9472400499329,
    "lat": 32.1378840691607,
    "OBJECTID_1": 245,
    "OBJECTID": 245,
    "SETL_CODE": 717,
    "name": "חגור",
    "MGLSDE_L_1": 588,
    "MGLSDE_L_2": 31,
    "MGLSDE_L_3": "מושבים (כפרים שיתופיים) (ב)",
    "MGLSDE_L_4": "HAGOR"
  },
  {
    "lng": 34.968834096908,
    "lat": 32.1532187074198,
    "OBJECTID_1": 246,
    "OBJECTID": 246,
    "SETL_CODE": 718,
    "name": "ירחיב",
    "MGLSDE_L_1": 682,
    "MGLSDE_L_2": 31,
    "MGLSDE_L_3": "מושבים (כפרים שיתופיים) (ב)",
    "MGLSDE_L_4": "YARHIV"
  },
  {
    "lng": 35.6176720526444,
    "lat": 32.7052606451209,
    "OBJECTID_1": 247,
    "OBJECTID": 247,
    "SETL_CODE": 719,
    "name": "תל קציר",
    "MGLSDE_L_1": 225,
    "MGLSDE_L_2": 33,
    "MGLSDE_L_3": "קיבוצים",
    "MGLSDE_L_4": "TEL QAZIR"
  },
  {
    "lng": 34.6798700204974,
    "lat": 31.8227365567108,
    "OBJECTID_1": 248,
    "OBJECTID": 248,
    "SETL_CODE": 720,
    "name": "ניר גלים",
    "MGLSDE_L_1": 547,
    "MGLSDE_L_2": 32,
    "MGLSDE_L_3": "מושבים שיתופיים",
    "MGLSDE_L_4": "NIR GALLIM"
  },
  {
    "lng": 35.4238625132618,
    "lat": 32.7467306853138,
    "OBJECTID_1": 249,
    "OBJECTID": 249,
    "SETL_CODE": 721,
    "name": "שדה אילן",
    "MGLSDE_L_1": 369,
    "MGLSDE_L_2": 31,
    "MGLSDE_L_3": "מושבים (כפרים שיתופיים) (ב)",
    "MGLSDE_L_4": "SEDE ILAN"
  },
  {
    "lng": 34.8986689542626,
    "lat": 32.0467829931429,
    "OBJECTID_1": 250,
    "OBJECTID": 250,
    "SETL_CODE": 722,
    "name": "מגשימים",
    "MGLSDE_L_1": 679,
    "MGLSDE_L_2": 31,
    "MGLSDE_L_3": "מושבים (כפרים שיתופיים) (ב)",
    "MGLSDE_L_4": "MAGSHIMIM"
  },
  {
    "lng": 34.6067829295251,
    "lat": 31.4247814643576,
    "OBJECTID_1": 251,
    "OBJECTID": 251,
    "SETL_CODE": 723,
    "name": "בית הגדי",
    "MGLSDE_L_1": 619,
    "MGLSDE_L_2": 31,
    "MGLSDE_L_3": "מושבים (כפרים שיתופיים) (ב)",
    "MGLSDE_L_4": "BET HAGADDI"
  },
  {
    "lng": 34.6416402474564,
    "lat": 31.6755598145155,
    "OBJECTID_1": 252,
    "OBJECTID": 252,
    "SETL_CODE": 726,
    "name": "הודייה",
    "MGLSDE_L_1": 556,
    "MGLSDE_L_2": 31,
    "MGLSDE_L_3": "מושבים (כפרים שיתופיים) (ב)",
    "MGLSDE_L_4": "HODIYYA"
  },
  {
    "lng": 34.762112298237,
    "lat": 31.7539603023216,
    "OBJECTID_1": 253,
    "OBJECTID": 253,
    "SETL_CODE": 727,
    "name": "תלמי יחיאל",
    "MGLSDE_L_1": 562,
    "MGLSDE_L_2": 31,
    "MGLSDE_L_3": "מושבים (כפרים שיתופיים) (ב)",
    "MGLSDE_L_4": "TALME YEHI'EL"
  },
  {
    "lng": 34.8243087730242,
    "lat": 32.0096256887819,
    "OBJECTID_1": 254,
    "OBJECTID": 254,
    "SETL_CODE": 729,
    "name": "משמר השבעה",
    "MGLSDE_L_1": 703,
    "MGLSDE_L_2": 31,
    "MGLSDE_L_3": "מושבים (כפרים שיתופיים) (ב)",
    "MGLSDE_L_4": "MISHMAR HASHIV'A"
  },
  {
    "lng": 35.5521871481349,
    "lat": 32.9469262566594,
    "OBJECTID_1": 255,
    "OBJECTID": 255,
    "SETL_CODE": 730,
    "name": "אליפלט",
    "MGLSDE_L_1": 460,
    "MGLSDE_L_2": 31,
    "MGLSDE_L_3": "מושבים (כפרים שיתופיים) (ב)",
    "MGLSDE_L_4": "ELIFELET"
  },
  {
    "lng": 34.7540129790608,
    "lat": 31.8184635231829,
    "OBJECTID_1": 256,
    "OBJECTID": 256,
    "SETL_CODE": 731,
    "name": "מישר",
    "MGLSDE_L_1": 457,
    "MGLSDE_L_2": 31,
    "MGLSDE_L_3": "מושבים (כפרים שיתופיים) (ב)",
    "MGLSDE_L_4": "MESHAR"
  },
  {
    "lng": 35.5998709143452,
    "lat": 33.0048641183031,
    "OBJECTID_1": 257,
    "OBJECTID": 257,
    "SETL_CODE": 732,
    "name": "משמר הירדן",
    "MGLSDE_L_1": 364,
    "MGLSDE_L_2": 31,
    "MGLSDE_L_3": "מושבים (כפרים שיתופיים) (ב)",
    "MGLSDE_L_4": "MISHMAR HAYARDEN"
  },
  {
    "lng": 34.9945404089755,
    "lat": 32.3495465688768,
    "OBJECTID_1": 258,
    "OBJECTID": 258,
    "SETL_CODE": 734,
    "name": "גן יאשיה",
    "MGLSDE_L_1": 509,
    "MGLSDE_L_2": 31,
    "MGLSDE_L_3": "מושבים (כפרים שיתופיים) (ב)",
    "MGLSDE_L_4": "GAN YOSHIYYA"
  },
  {
    "lng": 34.8520758713634,
    "lat": 31.8733307487448,
    "OBJECTID_1": 259,
    "OBJECTID": 259,
    "SETL_CODE": 735,
    "name": "רמות מאיר",
    "MGLSDE_L_1": 456,
    "MGLSDE_L_2": 31,
    "MGLSDE_L_3": "מושבים (כפרים שיתופיים) (ב)",
    "MGLSDE_L_4": "RAMOT ME'IR"
  },
  {
    "lng": 34.6534389662977,
    "lat": 31.3269313649727,
    "OBJECTID_1": 260,
    "OBJECTID": 260,
    "SETL_CODE": 736,
    "name": "גילת",
    "MGLSDE_L_1": 790,
    "MGLSDE_L_2": 31,
    "MGLSDE_L_3": "מושבים (כפרים שיתופיים) (ב)",
    "MGLSDE_L_4": "GILAT"
  },
  {
    "lng": 34.9863316548873,
    "lat": 32.3325325186588,
    "OBJECTID_1": 261,
    "OBJECTID": 261,
    "SETL_CODE": 737,
    "name": "עולש",
    "MGLSDE_L_1": 709,
    "MGLSDE_L_2": 31,
    "MGLSDE_L_3": "מושבים (כפרים שיתופיים) (ב)",
    "MGLSDE_L_4": "OLESH"
  },
  {
    "lng": 34.9258049370357,
    "lat": 32.6072123919369,
    "OBJECTID_1": 262,
    "OBJECTID": 262,
    "SETL_CODE": 738,
    "name": "דור",
    "MGLSDE_L_1": 321,
    "MGLSDE_L_2": 31,
    "MGLSDE_L_3": "מושבים (כפרים שיתופיים) (ב)",
    "MGLSDE_L_4": "DOR"
  },
  {
    "lng": 34.6764924209784,
    "lat": 31.7574842859859,
    "OBJECTID_1": 263,
    "OBJECTID": 263,
    "SETL_CODE": 739,
    "name": "שדה עוזיהו",
    "MGLSDE_L_1": 1190,
    "MGLSDE_L_2": 31,
    "MGLSDE_L_3": "מושבים (כפרים שיתופיים) (ב)",
    "MGLSDE_L_4": "SEDE UZZIYYAHU"
  },
  {
    "lng": 35.0087156492902,
    "lat": 31.7815408761621,
    "OBJECTID_1": 264,
    "OBJECTID": 264,
    "SETL_CODE": 740,
    "name": "אשתאול",
    "MGLSDE_L_1": 702,
    "MGLSDE_L_2": 31,
    "MGLSDE_L_3": "מושבים (כפרים שיתופיים) (ב)",
    "MGLSDE_L_4": "ESHTA'OL"
  },
  {
    "lng": 35.0779804955811,
    "lat": 31.7981130655785,
    "OBJECTID_1": 265,
    "OBJECTID": 265,
    "SETL_CODE": 741,
    "name": "שואבה",
    "MGLSDE_L_1": 399,
    "MGLSDE_L_2": 31,
    "MGLSDE_L_3": "מושבים (כפרים שיתופיים) (ב)",
    "MGLSDE_L_4": "SHO'EVA"
  },
  {
    "lng": 35.011173057706,
    "lat": 31.802498582382,
    "OBJECTID_1": 266,
    "OBJECTID": 266,
    "SETL_CODE": 742,
    "name": "מסילת ציון",
    "MGLSDE_L_1": 585,
    "MGLSDE_L_2": 31,
    "MGLSDE_L_3": "מושבים (כפרים שיתופיים) (ב)",
    "MGLSDE_L_4": "MESILLAT ZIYYON"
  },
  {
    "lng": 34.9323584315177,
    "lat": 31.889986192899,
    "OBJECTID_1": 267,
    "OBJECTID": 267,
    "SETL_CODE": 743,
    "name": "כפר שמואל",
    "MGLSDE_L_1": 510,
    "MGLSDE_L_2": 31,
    "MGLSDE_L_3": "מושבים (כפרים שיתופיים) (ב)",
    "MGLSDE_L_4": "KEFAR SHEMU'EL"
  },
  {
    "lng": 34.6173638979894,
    "lat": 31.6157546202501,
    "OBJECTID_1": 268,
    "OBJECTID": 268,
    "SETL_CODE": 744,
    "name": "תלמי יפה",
    "MGLSDE_L_1": 129,
    "MGLSDE_L_2": 32,
    "MGLSDE_L_3": "מושבים שיתופיים",
    "MGLSDE_L_4": "TALME YAFE"
  },
  {
    "lng": 35.4546496521041,
    "lat": 33.0773493511725,
    "OBJECTID_1": 269,
    "OBJECTID": 269,
    "SETL_CODE": 623,
    "name": "יראון",
    "MGLSDE_L_1": 354,
    "MGLSDE_L_2": 33,
    "MGLSDE_L_3": "קיבוצים",
    "MGLSDE_L_4": "YIR'ON"
  },
  {
    "lng": 34.9791750413551,
    "lat": 32.2846309199719,
    "OBJECTID_1": 270,
    "OBJECTID": 270,
    "SETL_CODE": 638,
    "name": "קלנסווה",
    "MGLSDE_L_1": 15500,
    "MGLSDE_L_2": 27,
    "MGLSDE_L_3": "10000-19999 תושבים,ישובים לא יהודים",
    "MGLSDE_L_4": "QALANSAWE"
  },
  {
    "lng": 35.1168484711834,
    "lat": 32.4905204099032,
    "OBJECTID_1": 271,
    "OBJECTID": 271,
    "SETL_CODE": 657,
    "name": "עין א-סהלה",
    "MGLSDE_L_1": 981,
    "MGLSDE_L_2": 45,
    "MGLSDE_L_3": "ישובים כפריים אחרים לא יהודים",
    "MGLSDE_L_4": "EIN AS-SAHLE"
  },
  {
    "lng": 34.9238399445534,
    "lat": 31.9804842622473,
    "OBJECTID_1": 272,
    "OBJECTID": 272,
    "SETL_CODE": 673,
    "name": "כפר טרומן",
    "MGLSDE_L_1": 483,
    "MGLSDE_L_2": 31,
    "MGLSDE_L_3": "מושבים (כפרים שיתופיים) (ב)",
    "MGLSDE_L_4": "KEFAR TRUMAN"
  },
  {
    "lng": 35.2061512298538,
    "lat": 32.6118692406558,
    "OBJECTID_1": 273,
    "OBJECTID": 273,
    "SETL_CODE": 684,
    "name": "היוגב",
    "MGLSDE_L_1": 545,
    "MGLSDE_L_2": 31,
    "MGLSDE_L_3": "מושבים (כפרים שיתופיים) (ב)",
    "MGLSDE_L_4": "HAYOGEV"
  },
  {
    "lng": 34.9408286819662,
    "lat": 31.9282452037304,
    "OBJECTID_1": 274,
    "OBJECTID": 274,
    "SETL_CODE": 745,
    "name": "גמזו",
    "MGLSDE_L_1": 658,
    "MGLSDE_L_2": 31,
    "MGLSDE_L_3": "מושבים (כפרים שיתופיים) (ב)",
    "MGLSDE_L_4": "GIMZO"
  },
  {
    "lng": 34.6257481333826,
    "lat": 31.6696912952738,
    "OBJECTID_1": 275,
    "OBJECTID": 275,
    "SETL_CODE": 746,
    "name": "ברכיה",
    "MGLSDE_L_1": 841,
    "MGLSDE_L_2": 31,
    "MGLSDE_L_3": "מושבים (כפרים שיתופיים) (ב)",
    "MGLSDE_L_4": "BEREKHYA"
  },
  {
    "lng": 34.6085365256113,
    "lat": 31.6379448810636,
    "OBJECTID_1": 276,
    "OBJECTID": 276,
    "SETL_CODE": 747,
    "name": "בית שקמה",
    "MGLSDE_L_1": 634,
    "MGLSDE_L_2": 31,
    "MGLSDE_L_3": "מושבים (כפרים שיתופיים) (ב)",
    "MGLSDE_L_4": "BET SHIQMA"
  },
  {
    "lng": 34.588854012338,
    "lat": 31.3233941426732,
    "OBJECTID_1": 277,
    "OBJECTID": 277,
    "SETL_CODE": 748,
    "name": "מסלול",
    "MGLSDE_L_1": 334,
    "MGLSDE_L_2": 31,
    "MGLSDE_L_3": "מושבים (כפרים שיתופיים) (ב)",
    "MGLSDE_L_4": "MASLUL"
  },
  {
    "lng": 34.5594120793443,
    "lat": 31.3268881043951,
    "OBJECTID_1": 278,
    "OBJECTID": 278,
    "SETL_CODE": 749,
    "name": "פטיש",
    "MGLSDE_L_1": 667,
    "MGLSDE_L_2": 31,
    "MGLSDE_L_3": "מושבים (כפרים שיתופיים) (ב)",
    "MGLSDE_L_4": "PATTISH"
  },
  {
    "lng": 34.6118474110405,
    "lat": 31.3269501435309,
    "OBJECTID_1": 279,
    "OBJECTID": 279,
    "SETL_CODE": 750,
    "name": "פדויים",
    "MGLSDE_L_1": 313,
    "MGLSDE_L_2": 31,
    "MGLSDE_L_3": "מושבים (כפרים שיתופיים) (ב)",
    "MGLSDE_L_4": "PEDUYIM"
  },
  {
    "lng": 35.0368153561291,
    "lat": 31.7941988463885,
    "OBJECTID_1": 280,
    "OBJECTID": 280,
    "SETL_CODE": 751,
    "name": "בית מאיר",
    "MGLSDE_L_1": 527,
    "MGLSDE_L_2": 31,
    "MGLSDE_L_3": "מושבים (כפרים שיתופיים) (ב)",
    "MGLSDE_L_4": "BET ME'IR"
  },
  {
    "lng": 34.9745721134332,
    "lat": 31.8009229857184,
    "OBJECTID_1": 281,
    "OBJECTID": 281,
    "SETL_CODE": 752,
    "name": "תעוז",
    "MGLSDE_L_1": 429,
    "MGLSDE_L_2": 31,
    "MGLSDE_L_3": "מושבים (כפרים שיתופיים) (ב)",
    "MGLSDE_L_4": "TA'OZ"
  },
  {
    "lng": 34.9499135307068,
    "lat": 32.3070977356274,
    "OBJECTID_1": 282,
    "OBJECTID": 282,
    "SETL_CODE": 753,
    "name": "ינוב",
    "MGLSDE_L_1": 692,
    "MGLSDE_L_2": 31,
    "MGLSDE_L_3": "מושבים (כפרים שיתופיים) (ב)",
    "MGLSDE_L_4": "YANUV"
  },
  {
    "lng": 34.6554898041993,
    "lat": 31.7366123919987,
    "OBJECTID_1": 283,
    "OBJECTID": 283,
    "SETL_CODE": 756,
    "name": "בית עזרא",
    "MGLSDE_L_1": 868,
    "MGLSDE_L_2": 31,
    "MGLSDE_L_3": "מושבים (כפרים שיתופיים) (ב)",
    "MGLSDE_L_4": "BET EZRA"
  },
  {
    "lng": 34.8745926963984,
    "lat": 31.9058307454284,
    "OBJECTID_1": 284,
    "OBJECTID": 284,
    "SETL_CODE": 757,
    "name": "מצליח",
    "MGLSDE_L_1": 1030,
    "MGLSDE_L_2": 31,
    "MGLSDE_L_3": "מושבים (כפרים שיתופיים) (ב)",
    "MGLSDE_L_4": "MAZLIAH"
  },
  {
    "lng": 35.0065714510886,
    "lat": 32.3256755418846,
    "OBJECTID_1": 285,
    "OBJECTID": 285,
    "SETL_CODE": 758,
    "name": "יד חנה",
    "MGLSDE_L_1": 117,
    "MGLSDE_L_2": 33,
    "MGLSDE_L_3": "קיבוצים",
    "MGLSDE_L_4": "YAD HANNA"
  },
  {
    "lng": 34.861124948093,
    "lat": 31.8632247504799,
    "OBJECTID_1": 286,
    "OBJECTID": 286,
    "SETL_CODE": 759,
    "name": "יציץ",
    "MGLSDE_L_1": 734,
    "MGLSDE_L_2": 31,
    "MGLSDE_L_3": "מושבים (כפרים שיתופיים) (ב)",
    "MGLSDE_L_4": "YAZIZ"
  },
  {
    "lng": 34.7289138761664,
    "lat": 31.8562763715819,
    "OBJECTID_1": 287,
    "OBJECTID": 287,
    "SETL_CODE": 760,
    "name": "בן זכאי",
    "MGLSDE_L_1": 549,
    "MGLSDE_L_2": 31,
    "MGLSDE_L_3": "מושבים (כפרים שיתופיים) (ב)",
    "MGLSDE_L_4": "BEN ZAKKAY"
  },
  {
    "lng": 34.544274350868,
    "lat": 31.4528495131434,
    "OBJECTID_1": 288,
    "OBJECTID": 288,
    "SETL_CODE": 761,
    "name": "שובה",
    "MGLSDE_L_1": 337,
    "MGLSDE_L_2": 31,
    "MGLSDE_L_3": "מושבים (כפרים שיתופיים) (ב)",
    "MGLSDE_L_4": "SHUVA"
  },
  {
    "lng": 34.6320996531001,
    "lat": 31.3344101533115,
    "OBJECTID_1": 289,
    "OBJECTID": 289,
    "SETL_CODE": 762,
    "name": "בטחה",
    "MGLSDE_L_1": 675,
    "MGLSDE_L_2": 31,
    "MGLSDE_L_3": "מושבים (כפרים שיתופיים) (ב)",
    "MGLSDE_L_4": "BITHA"
  },
  {
    "lng": 34.6839115126012,
    "lat": 31.7736958158061,
    "OBJECTID_1": 290,
    "OBJECTID": 290,
    "SETL_CODE": 763,
    "name": "שתולים",
    "MGLSDE_L_1": 1440,
    "MGLSDE_L_2": 31,
    "MGLSDE_L_3": "מושבים (כפרים שיתופיים) (ב)",
    "MGLSDE_L_4": "SHETULIM"
  },
  {
    "lng": 34.755269808934,
    "lat": 31.8313302918222,
    "OBJECTID_1": 291,
    "OBJECTID": 291,
    "SETL_CODE": 764,
    "name": "כפר מרדכי",
    "MGLSDE_L_1": 476,
    "MGLSDE_L_2": 31,
    "MGLSDE_L_3": "מושבים (כפרים שיתופיים) (ב)",
    "MGLSDE_L_4": "KEFAR MORDEKHAY"
  },
  {
    "lng": 34.7302402547647,
    "lat": 31.6623028703227,
    "OBJECTID_1": 292,
    "OBJECTID": 292,
    "SETL_CODE": 766,
    "name": "קוממיות",
    "MGLSDE_L_1": 245,
    "MGLSDE_L_2": 31,
    "MGLSDE_L_3": "מושבים (כפרים שיתופיים) (ב)",
    "MGLSDE_L_4": "QOMEMIYYUT"
  },
  {
    "lng": 34.9513543870878,
    "lat": 32.2770898104756,
    "OBJECTID_1": 293,
    "OBJECTID": 293,
    "SETL_CODE": 767,
    "name": "פורת",
    "MGLSDE_L_1": 924,
    "MGLSDE_L_2": 31,
    "MGLSDE_L_3": "מושבים (כפרים שיתופיים) (ב)",
    "MGLSDE_L_4": "PORAT"
  },
  {
    "lng": 34.5421649127248,
    "lat": 31.6041741399276,
    "OBJECTID_1": 294,
    "OBJECTID": 294,
    "SETL_CODE": 768,
    "name": "כרמייה",
    "MGLSDE_L_1": 326,
    "MGLSDE_L_2": 33,
    "MGLSDE_L_3": "קיבוצים",
    "MGLSDE_L_4": "KARMIYYA"
  },
  {
    "lng": 34.991628232984,
    "lat": 32.7008014089138,
    "OBJECTID_1": 295,
    "OBJECTID": 295,
    "SETL_CODE": 769,
    "name": "ניר עציון",
    "MGLSDE_L_1": 800,
    "MGLSDE_L_2": 32,
    "MGLSDE_L_3": "מושבים שיתופיים",
    "MGLSDE_L_4": "NIR EZYON"
  },
  {
    "lng": 35.1034733006537,
    "lat": 31.7228639405306,
    "OBJECTID_1": 296,
    "OBJECTID": 296,
    "SETL_CODE": 771,
    "name": "מבוא ביתר",
    "MGLSDE_L_1": 269,
    "MGLSDE_L_2": 32,
    "MGLSDE_L_3": "מושבים שיתופיים",
    "MGLSDE_L_4": "MEVO BETAR"
  },
  {
    "lng": 34.6759206692315,
    "lat": 31.7434643661154,
    "OBJECTID_1": 297,
    "OBJECTID": 297,
    "SETL_CODE": 772,
    "name": "אמונים",
    "MGLSDE_L_1": 652,
    "MGLSDE_L_2": 31,
    "MGLSDE_L_3": "מושבים (כפרים שיתופיים) (ב)",
    "MGLSDE_L_4": "EMUNIM"
  },
  {
    "lng": 35.0209023171306,
    "lat": 32.5634874744489,
    "OBJECTID_1": 298,
    "OBJECTID": 298,
    "SETL_CODE": 773,
    "name": "עמיקם",
    "MGLSDE_L_1": 436,
    "MGLSDE_L_2": 31,
    "MGLSDE_L_3": "מושבים (כפרים שיתופיים) (ב)",
    "MGLSDE_L_4": "AMMIQAM"
  },
  {
    "lng": 35.3120818848794,
    "lat": 33.0085321648339,
    "OBJECTID_1": 299,
    "OBJECTID": 299,
    "SETL_CODE": 774,
    "name": "צוריאל",
    "MGLSDE_L_1": 300,
    "MGLSDE_L_2": 31,
    "MGLSDE_L_3": "מושבים (כפרים שיתופיים) (ב)",
    "MGLSDE_L_4": "ZURI'EL"
  },
  {
    "lng": 34.7047271160365,
    "lat": 31.655135946565,
    "OBJECTID_1": 300,
    "OBJECTID": 300,
    "SETL_CODE": 775,
    "name": "יד נתן",
    "MGLSDE_L_1": 312,
    "MGLSDE_L_2": 31,
    "MGLSDE_L_3": "מושבים (כפרים שיתופיים) (ב)",
    "MGLSDE_L_4": "YAD NATAN"
  },
  {
    "lng": 35.007173141114,
    "lat": 31.7478115568747,
    "OBJECTID_1": 301,
    "OBJECTID": 301,
    "SETL_CODE": 776,
    "name": "מחסיה",
    "MGLSDE_L_1": 351,
    "MGLSDE_L_2": 31,
    "MGLSDE_L_3": "מושבים (כפרים שיתופיים) (ב)",
    "MGLSDE_L_4": "MAHSEYA"
  },
  {
    "lng": 34.9544357773479,
    "lat": 31.8310669934684,
    "OBJECTID_1": 302,
    "OBJECTID": 302,
    "SETL_CODE": 777,
    "name": "נחשון",
    "MGLSDE_L_1": 383,
    "MGLSDE_L_2": 33,
    "MGLSDE_L_3": "קיבוצים",
    "MGLSDE_L_4": "NAHSHON"
  },
  {
    "lng": 34.9816717568279,
    "lat": 31.7833093625221,
    "OBJECTID_1": 303,
    "OBJECTID": 303,
    "SETL_CODE": 778,
    "name": "תרום",
    "MGLSDE_L_1": 483,
    "MGLSDE_L_2": 31,
    "MGLSDE_L_3": "מושבים (כפרים שיתופיים) (ב)",
    "MGLSDE_L_4": "TARUM"
  },
  {
    "lng": 35.1419120938139,
    "lat": 31.7515573828264,
    "OBJECTID_1": 304,
    "OBJECTID": 304,
    "SETL_CODE": 779,
    "name": "עמינדב",
    "MGLSDE_L_1": 595,
    "MGLSDE_L_2": 31,
    "MGLSDE_L_3": "מושבים (כפרים שיתופיים) (ב)",
    "MGLSDE_L_4": "AMMINADAV"
  },
  {
    "lng": 35.1534919562931,
    "lat": 31.7549060021027,
    "OBJECTID_1": 305,
    "OBJECTID": 305,
    "SETL_CODE": 780,
    "name": "אורה",
    "MGLSDE_L_1": 795,
    "MGLSDE_L_2": 31,
    "MGLSDE_L_3": "מושבים (כפרים שיתופיים) (ב)",
    "MGLSDE_L_4": "ORA"
  },
  {
    "lng": 35.1331832607224,
    "lat": 31.7624021772043,
    "OBJECTID_1": 306,
    "OBJECTID": 306,
    "SETL_CODE": 783,
    "name": "אבן ספיר",
    "MGLSDE_L_1": 599,
    "MGLSDE_L_2": 31,
    "MGLSDE_L_3": "מושבים (כפרים שיתופיים) (ב)",
    "MGLSDE_L_4": "EVEN SAPPIR"
  },
  {
    "lng": 34.9551982812436,
    "lat": 31.9755371712822,
    "OBJECTID_1": 307,
    "OBJECTID": 307,
    "SETL_CODE": 784,
    "name": "בית נחמיה",
    "MGLSDE_L_1": 632,
    "MGLSDE_L_2": 31,
    "MGLSDE_L_3": "מושבים (כפרים שיתופיים) (ב)",
    "MGLSDE_L_4": "BET NEHEMYA"
  },
  {
    "lng": 35.1846046682481,
    "lat": 32.9070085445885,
    "OBJECTID_1": 308,
    "OBJECTID": 308,
    "SETL_CODE": 785,
    "name": "אחיהוד",
    "MGLSDE_L_1": 650,
    "MGLSDE_L_2": 31,
    "MGLSDE_L_3": "מושבים (כפרים שיתופיים) (ב)",
    "MGLSDE_L_4": "AHIHUD"
  },
  {
    "lng": 35.4612406764021,
    "lat": 32.8095919684401,
    "OBJECTID_1": 309,
    "OBJECTID": 309,
    "SETL_CODE": 786,
    "name": "כפר זיתים",
    "MGLSDE_L_1": 490,
    "MGLSDE_L_2": 31,
    "MGLSDE_L_3": "מושבים (כפרים שיתופיים) (ב)",
    "MGLSDE_L_4": "KEFAR ZETIM"
  },
  {
    "lng": 35.0921345037146,
    "lat": 31.786630383641,
    "OBJECTID_1": 310,
    "OBJECTID": 310,
    "SETL_CODE": 787,
    "name": "גבעת יערים",
    "MGLSDE_L_1": 925,
    "MGLSDE_L_2": 31,
    "MGLSDE_L_3": "מושבים (כפרים שיתופיים) (ב)",
    "MGLSDE_L_4": "GIV'AT YE'ARIM"
  },
  {
    "lng": 34.8901914762076,
    "lat": 31.9756764251196,
    "OBJECTID_1": 311,
    "OBJECTID": 311,
    "SETL_CODE": 788,
    "name": "זיתן",
    "MGLSDE_L_1": 770,
    "MGLSDE_L_2": 31,
    "MGLSDE_L_3": "מושבים (כפרים שיתופיים) (ב)",
    "MGLSDE_L_4": "ZETAN"
  },
  {
    "lng": 34.6010255603871,
    "lat": 31.3378415043374,
    "OBJECTID_1": 312,
    "OBJECTID": 312,
    "SETL_CODE": 789,
    "name": "רנן",
    "MGLSDE_L_1": 350,
    "MGLSDE_L_2": 31,
    "MGLSDE_L_3": "מושבים (כפרים שיתופיים) (ב)",
    "MGLSDE_L_4": "RANNEN"
  },
  {
    "lng": 34.6240053817388,
    "lat": 31.6572699966761,
    "OBJECTID_1": 313,
    "OBJECTID": 313,
    "SETL_CODE": 791,
    "name": "משען",
    "MGLSDE_L_1": 642,
    "MGLSDE_L_2": 31,
    "MGLSDE_L_3": "מושבים (כפרים שיתופיים) (ב)",
    "MGLSDE_L_4": "MASH'EN"
  },
  {
    "lng": 35.1360340358667,
    "lat": 32.9938326328252,
    "OBJECTID_1": 314,
    "OBJECTID": 314,
    "SETL_CODE": 792,
    "name": "נתיב השיירה",
    "MGLSDE_L_1": 436,
    "MGLSDE_L_2": 31,
    "MGLSDE_L_3": "מושבים (כפרים שיתופיים) (ב)",
    "MGLSDE_L_4": "NETIV HASHAYYARA"
  },
  {
    "lng": 34.6798389006645,
    "lat": 31.7326082075865,
    "OBJECTID_1": 315,
    "OBJECTID": 315,
    "SETL_CODE": 793,
    "name": "גבעתי",
    "MGLSDE_L_1": 717,
    "MGLSDE_L_2": 31,
    "MGLSDE_L_3": "מושבים (כפרים שיתופיים) (ב)",
    "MGLSDE_L_4": "GIV'ATI"
  },
  {
    "lng": 34.9127916189244,
    "lat": 31.6968730162905,
    "OBJECTID_1": 316,
    "OBJECTID": 316,
    "SETL_CODE": 794,
    "name": "עגור",
    "MGLSDE_L_1": 315,
    "MGLSDE_L_2": 31,
    "MGLSDE_L_3": "מושבים (כפרים שיתופיים) (ב)",
    "MGLSDE_L_4": "AGUR"
  },
  {
    "lng": 35.1854485232692,
    "lat": 33.067551670849,
    "OBJECTID_1": 317,
    "OBJECTID": 317,
    "SETL_CODE": 795,
    "name": "יערה",
    "MGLSDE_L_1": 512,
    "MGLSDE_L_2": 31,
    "MGLSDE_L_3": "מושבים (כפרים שיתופיים) (ב)",
    "MGLSDE_L_4": "YA'ARA"
  },
  {
    "lng": 34.9314662000719,
    "lat": 31.8046411525665,
    "OBJECTID_1": 318,
    "OBJECTID": 318,
    "SETL_CODE": 796,
    "name": "צלפון",
    "MGLSDE_L_1": 603,
    "MGLSDE_L_2": 31,
    "MGLSDE_L_3": "מושבים (כפרים שיתופיים) (ב)",
    "MGLSDE_L_4": "ZELAFON"
  },
  {
    "lng": 34.8717744578061,
    "lat": 31.9812090416225,
    "OBJECTID_1": 319,
    "OBJECTID": 319,
    "SETL_CODE": 797,
    "name": "אחיעזר",
    "MGLSDE_L_1": 1160,
    "MGLSDE_L_2": 31,
    "MGLSDE_L_3": "מושבים (כפרים שיתופיים) (ב)",
    "MGLSDE_L_4": "AHI'EZER"
  },
  {
    "lng": 34.8790958887335,
    "lat": 31.9883071626564,
    "OBJECTID_1": 320,
    "OBJECTID": 320,
    "SETL_CODE": 798,
    "name": "יגל",
    "MGLSDE_L_1": 638,
    "MGLSDE_L_2": 31,
    "MGLSDE_L_3": "מושבים (כפרים שיתופיים) (ב)",
    "MGLSDE_L_4": "YAGEL"
  },
  {
    "lng": 34.9448040775968,
    "lat": 31.7097117385408,
    "OBJECTID_1": 321,
    "OBJECTID": 321,
    "SETL_CODE": 799,
    "name": "זכריה",
    "MGLSDE_L_1": 653,
    "MGLSDE_L_2": 31,
    "MGLSDE_L_3": "מושבים (כפרים שיתופיים) (ב)",
    "MGLSDE_L_4": "ZEKHARYA"
  },
  {
    "lng": 34.9258715468082,
    "lat": 32.5288636987665,
    "OBJECTID_1": 322,
    "OBJECTID": 322,
    "SETL_CODE": 800,
    "name": "בית חנניה",
    "MGLSDE_L_1": 545,
    "MGLSDE_L_2": 31,
    "MGLSDE_L_3": "מושבים (כפרים שיתופיים) (ב)",
    "MGLSDE_L_4": "BET HANANYA"
  },
  {
    "lng": 34.8388924331897,
    "lat": 32.0193328172804,
    "OBJECTID_1": 323,
    "OBJECTID": 323,
    "SETL_CODE": 801,
    "name": "חמד",
    "MGLSDE_L_1": 502,
    "MGLSDE_L_2": 31,
    "MGLSDE_L_3": "מושבים (כפרים שיתופיים) (ב)",
    "MGLSDE_L_4": "HEMED"
  },
  {
    "lng": 34.9361295628126,
    "lat": 32.0300339740373,
    "OBJECTID_1": 324,
    "OBJECTID": 324,
    "SETL_CODE": 802,
    "name": "גבעת כ\"ח",
    "MGLSDE_L_1": 471,
    "MGLSDE_L_2": 31,
    "MGLSDE_L_3": "מושבים (כפרים שיתופיים) (ב)",
    "MGLSDE_L_4": "GIV'AT KOAH"
  },
  {
    "lng": 34.6092445172786,
    "lat": 31.4430228432484,
    "OBJECTID_1": 325,
    "OBJECTID": 325,
    "SETL_CODE": 803,
    "name": "יושיביה",
    "MGLSDE_L_1": 289,
    "MGLSDE_L_2": 31,
    "MGLSDE_L_3": "מושבים (כפרים שיתופיים) (ב)",
    "MGLSDE_L_4": "YOSHIVYA"
  },
  {
    "lng": 34.90748170657,
    "lat": 31.9347587126772,
    "OBJECTID_1": 326,
    "OBJECTID": 326,
    "SETL_CODE": 804,
    "name": "אחיסמך",
    "MGLSDE_L_1": 1040,
    "MGLSDE_L_2": 31,
    "MGLSDE_L_3": "מושבים (כפרים שיתופיים) (ב)",
    "MGLSDE_L_4": "AHISAMAKH"
  },
  {
    "lng": 34.9654955121489,
    "lat": 31.7513440027013,
    "OBJECTID_1": 327,
    "OBJECTID": 327,
    "SETL_CODE": 805,
    "name": "ישעי",
    "MGLSDE_L_1": 567,
    "MGLSDE_L_2": 31,
    "MGLSDE_L_3": "מושבים (כפרים שיתופיים) (ב)",
    "MGLSDE_L_4": "YISH'I"
  },
  {
    "lng": 35.2390836461982,
    "lat": 30.6604962574798,
    "OBJECTID_1": 328,
    "OBJECTID": 328,
    "SETL_CODE": 806,
    "name": "עין יהב",
    "MGLSDE_L_1": 479,
    "MGLSDE_L_2": 31,
    "MGLSDE_L_3": "מושבים (כפרים שיתופיים) (ב)",
    "MGLSDE_L_4": "EN YAHAV"
  },
  {
    "lng": 34.948236625063,
    "lat": 32.3330886553797,
    "OBJECTID_1": 329,
    "OBJECTID": 329,
    "SETL_CODE": 807,
    "name": "חניאל",
    "MGLSDE_L_1": 756,
    "MGLSDE_L_2": 31,
    "MGLSDE_L_3": "מושבים (כפרים שיתופיים) (ב)",
    "MGLSDE_L_4": "HANNI'EL"
  },
  {
    "lng": 34.9490047072014,
    "lat": 32.1970121767417,
    "OBJECTID_1": 330,
    "OBJECTID": 330,
    "SETL_CODE": 808,
    "name": "ניר אליהו",
    "MGLSDE_L_1": 358,
    "MGLSDE_L_2": 33,
    "MGLSDE_L_3": "קיבוצים",
    "MGLSDE_L_4": "NIR ELIYYAHU"
  },
  {
    "lng": 35.0030153183227,
    "lat": 31.7662119688783,
    "OBJECTID_1": 331,
    "OBJECTID": 331,
    "SETL_CODE": 809,
    "name": "נחם",
    "MGLSDE_L_1": 442,
    "MGLSDE_L_2": 31,
    "MGLSDE_L_3": "מושבים (כפרים שיתופיים) (ב)",
    "MGLSDE_L_4": "NAHAM"
  },
  {
    "lng": 34.981651268039,
    "lat": 32.6224687190724,
    "OBJECTID_1": 332,
    "OBJECTID": 332,
    "SETL_CODE": 810,
    "name": "עופר",
    "MGLSDE_L_1": 331,
    "MGLSDE_L_2": 31,
    "MGLSDE_L_3": "מושבים (כפרים שיתופיים) (ב)",
    "MGLSDE_L_4": "OFER"
  },
  {
    "lng": 34.6000034975637,
    "lat": 31.482957779584,
    "OBJECTID_1": 333,
    "OBJECTID": 333,
    "SETL_CODE": 811,
    "name": "יכיני",
    "MGLSDE_L_1": 437,
    "MGLSDE_L_2": 31,
    "MGLSDE_L_3": "מושבים (כפרים שיתופיים) (ב)",
    "MGLSDE_L_4": "YAKHINI"
  },
  {
    "lng": 35.1476387555821,
    "lat": 33.0764120299681,
    "OBJECTID_1": 334,
    "OBJECTID": 334,
    "SETL_CODE": 812,
    "name": "שלומי",
    "MGLSDE_L_1": 4930,
    "MGLSDE_L_2": 18,
    "MGLSDE_L_3": "2000-9999 תושבים,ישובים יהודים",
    "MGLSDE_L_4": "SHELOMI"
  },
  {
    "lng": 35.2275007397023,
    "lat": 33.0115472850475,
    "OBJECTID_1": 335,
    "OBJECTID": 335,
    "SETL_CODE": 813,
    "name": "עין יעקב",
    "MGLSDE_L_1": 501,
    "MGLSDE_L_2": 31,
    "MGLSDE_L_3": "מושבים (כפרים שיתופיים) (ב)",
    "MGLSDE_L_4": "EN YA'AQOV"
  },
  {
    "lng": 34.6725893273764,
    "lat": 31.5643767478287,
    "OBJECTID_1": 336,
    "OBJECTID": 336,
    "SETL_CODE": 814,
    "name": "תלמים",
    "MGLSDE_L_1": 516,
    "MGLSDE_L_2": 31,
    "MGLSDE_L_3": "מושבים (כפרים שיתופיים) (ב)",
    "MGLSDE_L_4": "TELAMIM"
  },
  {
    "lng": 34.7602522177035,
    "lat": 31.6589572833087,
    "OBJECTID_1": 337,
    "OBJECTID": 337,
    "SETL_CODE": 815,
    "name": "זבדיאל",
    "MGLSDE_L_1": 393,
    "MGLSDE_L_2": 31,
    "MGLSDE_L_3": "מושבים (כפרים שיתופיים) (ב)",
    "MGLSDE_L_4": "ZAVDI'EL"
  },
  {
    "lng": 34.6972467018978,
    "lat": 31.7512827059777,
    "OBJECTID_1": 338,
    "OBJECTID": 338,
    "SETL_CODE": 817,
    "name": "עזריקם",
    "MGLSDE_L_1": 1020,
    "MGLSDE_L_2": 31,
    "MGLSDE_L_3": "מושבים (כפרים שיתופיים) (ב)",
    "MGLSDE_L_4": "AZRIQAM"
  },
  {
    "lng": 34.7460322950882,
    "lat": 31.6815093300022,
    "OBJECTID_1": 339,
    "OBJECTID": 339,
    "SETL_CODE": 818,
    "name": "זרחיה",
    "MGLSDE_L_1": 465,
    "MGLSDE_L_2": 31,
    "MGLSDE_L_3": "מושבים (כפרים שיתופיים) (ב)",
    "MGLSDE_L_4": "ZERAHYA"
  },
  {
    "lng": 34.7435319392366,
    "lat": 31.7097865969248,
    "OBJECTID_1": 340,
    "OBJECTID": 340,
    "SETL_CODE": 819,
    "name": "אביגדור",
    "MGLSDE_L_1": 615,
    "MGLSDE_L_2": 31,
    "MGLSDE_L_3": "מושבים (כפרים שיתופיים) (ב)",
    "MGLSDE_L_4": "AVIGEDOR"
  },
  {
    "lng": 34.6578787388127,
    "lat": 31.5781106540852,
    "OBJECTID_1": 341,
    "OBJECTID": 341,
    "SETL_CODE": 820,
    "name": "חלץ",
    "MGLSDE_L_1": 433,
    "MGLSDE_L_2": 31,
    "MGLSDE_L_3": "מושבים (כפרים שיתופיים) (ב)",
    "MGLSDE_L_4": "HELEZ"
  },
  {
    "lng": 34.7703682048354,
    "lat": 31.5539690843566,
    "OBJECTID_1": 342,
    "OBJECTID": 342,
    "SETL_CODE": 821,
    "name": "אחוזם",
    "MGLSDE_L_1": 377,
    "MGLSDE_L_2": 31,
    "MGLSDE_L_3": "מושבים (כפרים שיתופיים) (ב)",
    "MGLSDE_L_4": "AHUZZAM"
  },
  {
    "lng": 35.0613508388682,
    "lat": 31.7177360986417,
    "OBJECTID_1": 343,
    "OBJECTID": 343,
    "SETL_CODE": 822,
    "name": "מטע",
    "MGLSDE_L_1": 482,
    "MGLSDE_L_2": 31,
    "MGLSDE_L_3": "מושבים (כפרים שיתופיים) (ב)",
    "MGLSDE_L_4": "MATTA"
  },
  {
    "lng": 35.0715655646194,
    "lat": 31.7295588555824,
    "OBJECTID_1": 344,
    "OBJECTID": 344,
    "SETL_CODE": 823,
    "name": "בר גיורא",
    "MGLSDE_L_1": 356,
    "MGLSDE_L_2": 31,
    "MGLSDE_L_3": "מושבים (כפרים שיתופיים) (ב)",
    "MGLSDE_L_4": "BAR GIYYORA"
  },
  {
    "lng": 34.6687631234396,
    "lat": 31.629453330672,
    "OBJECTID_1": 345,
    "OBJECTID": 345,
    "SETL_CODE": 824,
    "name": "כוכב מיכאל",
    "MGLSDE_L_1": 515,
    "MGLSDE_L_2": 31,
    "MGLSDE_L_3": "מושבים (כפרים שיתופיים) (ב)",
    "MGLSDE_L_4": "KOKHAV MIKHA'EL"
  },
  {
    "lng": 35.0549058999297,
    "lat": 31.7449244181413,
    "OBJECTID_1": 346,
    "OBJECTID": 346,
    "SETL_CODE": 825,
    "name": "נס הרים",
    "MGLSDE_L_1": 502,
    "MGLSDE_L_2": 31,
    "MGLSDE_L_3": "מושבים (כפרים שיתופיים) (ב)",
    "MGLSDE_L_4": "NES HARIM"
  },
  {
    "lng": 34.7642041255866,
    "lat": 31.5926723932811,
    "OBJECTID_1": 347,
    "OBJECTID": 347,
    "SETL_CODE": 826,
    "name": "עוזה",
    "MGLSDE_L_1": 490,
    "MGLSDE_L_2": 31,
    "MGLSDE_L_3": "מושבים (כפרים שיתופיים) (ב)",
    "MGLSDE_L_4": "UZA"
  },
  {
    "lng": 34.740462791802,
    "lat": 31.8054694726399,
    "OBJECTID_1": 348,
    "OBJECTID": 348,
    "SETL_CODE": 827,
    "name": "נווה מבטח",
    "MGLSDE_L_1": 437,
    "MGLSDE_L_2": 31,
    "MGLSDE_L_3": "מושבים (כפרים שיתופיים) (ב)",
    "MGLSDE_L_4": "NEWE MIVTAH"
  },
  {
    "lng": 34.8458656980119,
    "lat": 31.9148368136014,
    "OBJECTID_1": 349,
    "OBJECTID": 349,
    "SETL_CODE": 828,
    "name": "ישרש",
    "MGLSDE_L_1": 649,
    "MGLSDE_L_2": 31,
    "MGLSDE_L_3": "מושבים (כפרים שיתופיים) (ב)",
    "MGLSDE_L_4": "YASHRESH"
  },
  {
    "lng": 34.4084941626923,
    "lat": 31.2399731723032,
    "OBJECTID_1": 350,
    "OBJECTID": 350,
    "SETL_CODE": 829,
    "name": "מבטחים",
    "MGLSDE_L_1": 319,
    "MGLSDE_L_2": 31,
    "MGLSDE_L_3": "מושבים (כפרים שיתופיים) (ב)",
    "MGLSDE_L_4": "MIVTAHIM"
  },
  {
    "lng": 34.9305403882779,
    "lat": 30.9884728303792,
    "OBJECTID_1": 351,
    "OBJECTID": 351,
    "SETL_CODE": 831,
    "name": "ירוחם",
    "MGLSDE_L_1": 8610,
    "MGLSDE_L_2": 18,
    "MGLSDE_L_3": "2000-9999 תושבים,ישובים יהודים",
    "MGLSDE_L_4": "YEROHAM"
  },
  {
    "lng": 35.356621263983,
    "lat": 32.5417121143242,
    "OBJECTID_1": 352,
    "OBJECTID": 352,
    "SETL_CODE": 833,
    "name": "נורית",
    "MGLSDE_L_1": 0,
    "MGLSDE_L_2": 0,
    "MGLSDE_L_3": "ללא סוג",
    "MGLSDE_L_4": "NURIT"
  },
  {
    "lng": 34.8284944847478,
    "lat": 32.0178575218523,
    "OBJECTID_1": 353,
    "OBJECTID": 353,
    "SETL_CODE": 836,
    "name": "גנות",
    "MGLSDE_L_1": 450,
    "MGLSDE_L_2": 31,
    "MGLSDE_L_3": "מושבים (כפרים שיתופיים) (ב)",
    "MGLSDE_L_4": "GANNOT"
  },
  {
    "lng": 34.970736742566,
    "lat": 32.2618404959068,
    "OBJECTID_1": 354,
    "OBJECTID": 354,
    "SETL_CODE": 837,
    "name": "עזריאל",
    "MGLSDE_L_1": 472,
    "MGLSDE_L_2": 31,
    "MGLSDE_L_3": "מושבים (כפרים שיתופיים) (ב)",
    "MGLSDE_L_4": "AZRI'EL"
  },
  {
    "lng": 34.8815414689476,
    "lat": 31.8578222371245,
    "OBJECTID_1": 355,
    "OBJECTID": 355,
    "SETL_CODE": 838,
    "name": "פדיה",
    "MGLSDE_L_1": 519,
    "MGLSDE_L_2": 31,
    "MGLSDE_L_3": "מושבים (כפרים שיתופיים) (ב)",
    "MGLSDE_L_4": "PEDAYA"
  },
  {
    "lng": 34.8870574137571,
    "lat": 31.8668849613985,
    "OBJECTID_1": 356,
    "OBJECTID": 356,
    "SETL_CODE": 839,
    "name": "פתחיה",
    "MGLSDE_L_1": 665,
    "MGLSDE_L_2": 31,
    "MGLSDE_L_3": "מושבים (כפרים שיתופיים) (ב)",
    "MGLSDE_L_4": "PETAHYA"
  },
  {
    "lng": 34.400233345567,
    "lat": 31.37448865346,
    "OBJECTID_1": 357,
    "OBJECTID": 357,
    "SETL_CODE": 840,
    "name": "כיסופים",
    "MGLSDE_L_1": 202,
    "MGLSDE_L_2": 33,
    "MGLSDE_L_3": "קיבוצים",
    "MGLSDE_L_4": "KISSUFIM"
  },
  {
    "lng": 34.9278974023981,
    "lat": 32.1522136093114,
    "OBJECTID_1": 358,
    "OBJECTID": 358,
    "SETL_CODE": 841,
    "name": "אלישמע",
    "MGLSDE_L_1": 825,
    "MGLSDE_L_2": 31,
    "MGLSDE_L_3": "מושבים (כפרים שיתופיים) (ב)",
    "MGLSDE_L_4": "ELISHAMA"
  },
  {
    "lng": 34.8283181666163,
    "lat": 32.2298197791927,
    "OBJECTID_1": 359,
    "OBJECTID": 359,
    "SETL_CODE": 842,
    "name": "געש",
    "MGLSDE_L_1": 504,
    "MGLSDE_L_2": 33,
    "MGLSDE_L_3": "קיבוצים",
    "MGLSDE_L_4": "GA'ASH"
  },
  {
    "lng": 35.5454954279447,
    "lat": 33.218272206791,
    "OBJECTID_1": 360,
    "OBJECTID": 360,
    "SETL_CODE": 843,
    "name": "מרגליות",
    "MGLSDE_L_1": 345,
    "MGLSDE_L_2": 31,
    "MGLSDE_L_3": "מושבים (כפרים שיתופיים) (ב)",
    "MGLSDE_L_4": "MARGALIYYOT"
  },
  {
    "lng": 34.4976874735942,
    "lat": 31.4723673101198,
    "OBJECTID_1": 361,
    "OBJECTID": 361,
    "SETL_CODE": 844,
    "name": "נחל עוז",
    "MGLSDE_L_1": 288,
    "MGLSDE_L_2": 33,
    "MGLSDE_L_3": "קיבוצים",
    "MGLSDE_L_4": "NAHAL OZ"
  },